[{"location":{"stateCode":"AL","latitude":33.2265,"longitude":-86.8058,"displayAddress":"250 S Colonial Dr, Alabaster, AL, 35007"},"storeNumber":2276,"name":"Alabaster","supertarget":false,"services":["Pharmacy","Starbucks","Wine Available","Flu Shot"],"pharmacy":true,"hours":["M-Fr: 8:00 a.m.- 10:00 p.m.","Sa: 8:00 a.m. - 10:00 p.m.","Su: 8:00 a.m.- 9:00 p.m.","11/25-12/15 We will open Mon-Sat 8:00AM-11:00PM and Sun 8:00AM-10:00PM."]},{"location":{"stateCode":"AL","latitude":30.673,"longitude":-88.1248,"displayAddress":"3150 Bel Air Mall, Mobile, AL, 36606"},"storeNumber":797,"name":"Bel-Air","supertarget":false,"services":["Pharmacy","Wine Available","Flu Shot"],"pharmacy":true,"hours":["M-Fr: 8:00 a.m.- 10:00 p.m.","Sa: 8:00 a.m. - 10:00 p.m.","Su: 8:00 a.m.- 9:00 p.m.","11/25-12/22 We will open Mon-Sat 8:00AM-11:00PM and Sun 8:00AM-10:00PM.","On 12/23 hours will be 8:00AM-12:00AM."]},{"location":{"stateCode":"AL","latitude":33.3339,"longitude":-86.9905,"displayAddress":"4889 Promenade Pkwy, Bessemer, AL, 35022"},"storeNumber":2375,"name":"Bessemer","supertarget":false,"services":["Pharmacy","Starbucks","Wine Available","Flu Shot"],"pharmacy":true,"hours":["M-Fr: 8:00 a.m.- 10:00 p.m.","Sa: 8:00 a.m. - 10:00 p.m.","Su: 8:00 a.m.- 9:00 p.m.","11/25-12/15 We will open Mon-Sat 8:00AM-11:00PM and Sun 8:00AM-10:00PM."]},{"location":{"stateCode":"AL","latitude":33.4258,"longitude":-86.7118,"displayAddress":"4616 Highway 280 S, Birmingham, AL, 35242"},"storeNumber":1772,"name":"Birmingham 280 Corridor SuperTarget","supertarget":true,"services":["Pharmacy","Optical","Fresh Grocery","Starbucks","Target Mobile","Wine Available","Flu Shot"],"pharmacy":true,"hours":["M-Fr: 8:00 a.m.- 11:00 p.m.","Sa: 8:00 a.m. - 11:00 p.m.","Su: 8:00 a.m.- 10:00 p.m.","11/25-12/15 We will open Mon-Sat 8:00AM-11:00PM and Sun 8:00AM-10:00PM."]},{"location":{"stateCode":"AL","latitude":30.6027,"longitude":-87.8964,"displayAddress":"1698 US Highway 98, Daphne, AL, 36526"},"storeNumber":1274,"name":"Daphne","supertarget":false,"services":["Pharmacy","Wine Available","Flu Shot"],"pharmacy":true,"hours":["M-Fr: 8:00 a.m.- 10:00 p.m.","Sa: 8:00 a.m. - 10:00 p.m.","Su: 8:00 a.m.- 9:00 p.m.","12/9 - 12/22 we will be open Mon-Sat 8:00AM-12:00AM and Sun 8:00AM-11:00PM"]},{"location":{"stateCode":"AL","latitude":34.5604,"longitude":-86.9718,"displayAddress":"1235 Point Mallard Parkway SE, Decatur, AL, 35601"},"storeNumber":2084,"name":"Decatur","supertarget":false,"services":["Pharmacy","Starbucks","Target Mobile","Wine Available","Flu Shot"],"pharmacy":true,"hours":["M-Fr: 8:00 a.m.- 10:00 p.m.","Sa: 8:00 a.m. - 10:00 p.m.","Su: 8:00 a.m.- 9:00 p.m.","11/25-12/22 We will open Mon-Sat 8:00AM-11:00PM and Sun 8:00AM-10:00PM.","On 12/23 hours will be 8:00AM-12:00AM."]},{"location":{"stateCode":"AL","latitude":31.2672,"longitude":-85.4409,"displayAddress":"4601 Montgomery Hwy Ste 300, Dothan, AL, 36303"},"storeNumber":1468,"name":"Dothan","supertarget":false,"services":["Pharmacy","Fresh Grocery","Starbucks","Target Mobile","Wine Available","Flu Shot"],"pharmacy":true,"hours":["M-Fr: 8:00 a.m.- 10:00 p.m.","Sa: 8:00 a.m. - 10:00 p.m.","Su: 8:00 a.m.- 9:00 p.m.","12/9 - 12/22 we will be open Mon-Sat 8:00AM-12:00AM and Sun 8:00AM-11:00PM"]},{"location":{"stateCode":"AL","latitude":34.842,"longitude":-87.635,"displayAddress":"372 Cox Creek Pkwy, Florence, AL, 35630"},"storeNumber":1322,"name":"Florence","supertarget":false,"services":["Pharmacy","Target Mobile","Wine Available","Flu Shot"],"pharmacy":true,"hours":["M-Fr: 8:00 a.m.- 10:00 p.m.","Sa: 8:00 a.m. - 10:00 p.m.","Su: 8:00 a.m.- 9:00 p.m.","12/9 - 12/22 we will be open Mon-Sat 8:00AM-12:00AM and Sun 8:00AM-11:00PM"]},{"location":{"stateCode":"AL","latitude":33.6068,"longitude":-86.8063,"displayAddress":"3489 Lowery Pkwy, Fultondale, AL, 35068"},"storeNumber":2355,"name":"Fultondale","supertarget":false,"services":["Pharmacy","Starbucks","Wine Available","Flu Shot"],"pharmacy":true,"hours":["M-Fr: 8:00 a.m.- 10:00 p.m.","Sa: 8:00 a.m. - 10:00 p.m.","Su: 8:00 a.m.- 9:00 p.m.","11/25-12/15 We will open Mon-Sat 8:00AM-11:00PM and Sun 8:00AM-10:00PM."]},{"location":{"stateCode":"AL","latitude":30.3031,"longitude":-87.6807,"displayAddress":"3820 Gulf Shores Pkwy, Gulf Shores, AL, 36542"},"storeNumber":2154,"name":"Gulf Shores","supertarget":false,"services":["Pharmacy","Fresh Grocery","Starbucks","Wine Available","Flu Shot"],"pharmacy":true,"hours":["M-Fr: 8:00 a.m.- 10:00 p.m.","Sa: 8:00 a.m. - 10:00 p.m.","Su: 8:00 a.m.- 9:00 p.m.","12/9 - 12/22 we will be open Mon-Sat 8:00AM-12:00AM and Sun 8:00AM-11:00PM"]},{"location":{"stateCode":"AL","latitude":33.3611,"longitude":-86.8526,"displayAddress":"5561 Grove Blvd, Birmingham, AL, 35226"},"storeNumber":2503,"name":"Hoover West SuperTarget","supertarget":true,"services":["Pharmacy","Photo Center","Optical","Fresh Grocery","Starbucks","Target Mobile","Wine Available","Flu Shot"],"pharmacy":true,"hours":["M-Fr: 8:00 a.m.- 11:00 p.m.","Sa: 8:00 a.m. - 11:00 p.m.","Su: 8:00 a.m.- 10:00 p.m.","11/25-12/15 We will open Mon-Sat 8:00AM-11:00PM and Sun 8:00AM-10:00PM."]},{"location":{"stateCode":"AL","latitude":34.6729,"longitude":-86.5414,"displayAddress":"2750 Carl T Jones Dr SE Ste 7, Huntsville, AL, 35802"},"storeNumber":1367,"name":"Huntsville South SuperTarget","supertarget":true,"services":["Pharmacy","Photo Center","Optical","Fresh Grocery","Starbucks","Target Mobile","Wine Available","Flu Shot"],"pharmacy":true,"hours":["M-Fr: 8:00 a.m.- 10:00 p.m.","Sa: 8:00 a.m. - 10:00 p.m.","Su: 8:00 a.m.- 9:00 p.m.","11/25-12/15 We will open Mon-Sat 8:00AM-11:00PM and Sun 8:00AM-10:00PM."]},{"location":{"stateCode":"AL","latitude":34.7418,"longitude":-86.6818,"displayAddress":"6275 University Dr NW, Huntsville, AL, 35806"},"storeNumber":1346,"name":"Huntsville West SuperTarget","supertarget":true,"services":["Pharmacy","Photo Center","Optical","Fresh Grocery","Starbucks","Target Mobile","Portrait Studio","Wine Available","Flu Shot"],"pharmacy":true,"hours":["M-Fr: 8:00 a.m.- 11:00 p.m.","Sa: 8:00 a.m. - 11:00 p.m.","Su: 8:00 a.m.- 10:00 p.m.","12/9 - 12/22 we will be open Mon-Sat 8:00AM-12:00AM and Sun 8:00AM-11:00PM"]},{"location":{"stateCode":"AL","latitude":34.7492,"longitude":-86.7557,"displayAddress":"8207 HIGHWAY 72 W, Madison, AL, 35758"},"storeNumber":2816,"name":"Madison","supertarget":false,"services":["Pharmacy","Photo Center","Fresh Grocery","Starbucks","Target Mobile","Wine Available","Flu Shot"],"pharmacy":true,"hours":["M-Fr: 8:00 a.m.- 10:00 p.m.","Sa: 8:00 a.m. - 10:00 p.m.","Su: 8:00 a.m.- 9:00 p.m.","11/25-12/22 We will open Mon-Sat 8:00AM-11:00PM and Sun 8:00AM-10:00PM.","On 12/23 hours will be 8:00AM-12:00AM."]},{"location":{"stateCode":"AL","latitude":30.6741,"longitude":-88.228,"displayAddress":"790 Schillinger Rd S, Mobile, AL, 36695"},"storeNumber":1376,"name":"Mobile West SuperTarget","supertarget":true,"services":["Pharmacy","Photo Center","Fresh Grocery","Starbucks","Target Mobile","Wine Available","Flu Shot"],"pharmacy":true,"hours":["M-Fr: 8:00 a.m.- 10:00 p.m.","Sa: 8:00 a.m. - 10:00 p.m.","Su: 8:00 a.m.- 9:00 p.m.","11/25-12/15 We will open Mon-Sat 8:00AM-11:00PM and Sun 8:00AM-10:00PM."]},{"location":{"stateCode":"AL","latitude":32.3609,"longitude":-86.1621,"displayAddress":"2576 Berryhill Rd, Montgomery, AL, 36117"},"storeNumber":1825,"name":"Montgomery","supertarget":false,"services":["Pharmacy","Target Mobile","Wine Available","Flu Shot"],"pharmacy":true,"hours":["M-Fr: 8:00 a.m.- 10:00 p.m.","Sa: 8:00 a.m. - 10:00 p.m.","Su: 8:00 a.m.- 9:00 p.m.","12/9 - 12/22 we will be open Mon-Sat 8:00AM-12:00AM and Sun 8:00AM-11:00PM"]},{"location":{"stateCode":"AL","latitude":32.6178,"longitude":-85.4101,"displayAddress":"2640 Enterprise Dr, Opelika, AL, 36801"},"storeNumber":1499,"name":"Opelika","supertarget":false,"services":["Pharmacy","Starbucks","Target Mobile","Wine Available","Flu Shot"],"pharmacy":true,"hours":["M-Fr: 8:00 a.m.- 10:00 p.m.","Sa: 8:00 a.m. - 10:00 p.m.","Su: 8:00 a.m.- 9:00 p.m.","12/9 - 12/22 we will be open Mon-Sat 8:00AM-12:00AM and Sun 8:00AM-11:00PM"]},{"location":{"stateCode":"AL","latitude":33.6098,"longitude":-85.7836,"displayAddress":"400 Oxford Exchange Blvd, Oxford, AL, 36203"},"storeNumber":2153,"name":"Oxford","supertarget":false,"services":["Pharmacy","Starbucks","Target Mobile","Wine Available","Flu Shot"],"pharmacy":true,"hours":["M-Fr: 8:00 a.m.- 10:00 p.m.","Sa: 8:00 a.m. - 10:00 p.m.","Su: 8:00 a.m.- 9:00 p.m.","12/9 - 12/22 we will be open Mon-Sat 8:00AM-12:00AM and Sun 8:00AM-11:00PM"]},{"location":{"stateCode":"AL","latitude":32.4577,"longitude":-86.396,"displayAddress":"2754 Legends Pkwy, Prattville, AL, 36066"},"storeNumber":2274,"name":"Prattville","supertarget":false,"services":["Pharmacy","Starbucks","Wine Available","Flu Shot"],"pharmacy":true,"hours":["M-Fr: 8:00 a.m.- 10:00 p.m.","Sa: 8:00 a.m. - 10:00 p.m.","Su: 8:00 a.m.- 9:00 p.m.","11/25-12/22 We will open Mon-Sat 8:00AM-11:00PM and Sun 8:00AM-10:00PM.","On 12/23 hours will be 8:00AM-12:00AM."]},{"location":{"stateCode":"AL","latitude":33.6047,"longitude":-86.6371,"displayAddress":"1654 Gadsden Hwy, Birmingham, AL, 35235"},"storeNumber":1773,"name":"Trussville SuperTarget","supertarget":true,"services":["Pharmacy","Photo Center","Optical","Fresh Grocery","Starbucks","Target Mobile","Wine Available","Flu Shot"],"pharmacy":true,"hours":["M-Fr: 8:00 a.m.- 10:00 p.m.","Sa: 8:00 a.m. - 10:00 p.m.","Su: 8:00 a.m.- 9:00 p.m.","12/9 - 12/22 we will be open Mon-Sat 8:00AM-12:00AM and Sun 8:00AM-11:00PM"]},{"location":{"stateCode":"AL","latitude":33.1933,"longitude":-87.5182,"displayAddress":"1901 13th Ave E, Tuscaloosa, AL, 35404"},"storeNumber":1787,"name":"Tuscaloosa SuperTarget","supertarget":true,"services":["Pharmacy","Photo Center","Optical","Fresh Grocery","Starbucks","Target Mobile","Wine Available","Flu Shot"],"pharmacy":true,"hours":["M-Fr: 8:00 a.m.- 11:00 p.m.","Sa: 8:00 a.m. - 11:00 p.m.","Su: 8:00 a.m.- 10:00 p.m.","11/25-12/15 We will open Mon-Sat 8:00AM-11:00PM and Sun 8:00AM-10:00PM."]},{"location":{"stateCode":"AK","latitude":61.2276,"longitude":-149.743,"displayAddress":"1200 N Muldoon Rd, Anchorage, AK, 99504"},"storeNumber":2371,"name":"Anchorage NE","supertarget":false,"services":["Pharmacy","Photo Center","Starbucks","Flu Shot"],"pharmacy":true,"hours":["M-Fr: 8:00 a.m.- 11:00 p.m.","Sa: 8:00 a.m. - 11:00 p.m.","Su: 8:00 a.m.- 10:00 p.m.","11/25-12/22 We will open Mon-Sat 8:00AM-12:00AM and Sun 8:00AM-11:00PM.","On 12/23 hours will be 8:00AM-12:00AM."]},{"location":{"stateCode":"AK","latitude":61.1295,"longitude":-149.882,"displayAddress":"150 W 100th Ave, Anchorage, AK, 99515"},"storeNumber":2372,"name":"Anchorage South","supertarget":false,"services":["Pharmacy","Photo Center","Starbucks","Flu Shot"],"pharmacy":true,"hours":["M-Fr: 8:00 a.m.- 11:00 p.m.","Sa: 8:00 a.m. - 11:00 p.m.","Su: 8:00 a.m.- 10:00 p.m.","11/25-12/15 We will open Mon-Sat 8:00AM-11:00PM and Sun 8:00AM-10:00PM."]},{"location":{"stateCode":"AK","latitude":61.5774,"longitude":-149.405,"displayAddress":"1801 E Parks Hwy, Wasilla, AK, 99654"},"storeNumber":2339,"name":"Wasilla","supertarget":false,"services":["Pharmacy","Photo Center","Starbucks","Flu Shot"],"pharmacy":true,"hours":["M-Fr: 8:00 a.m.- 10:00 p.m.","Sa: 8:00 a.m. - 10:00 p.m.","Su: 8:00 a.m.- 9:00 p.m.","11/25-12/15 We will open Mon-Sat 8:00AM-11:00PM and Sun 8:00AM-10:00PM."]},{"location":{"stateCode":"AZ","latitude":33.3214,"longitude":-111.981,"displayAddress":"4734 E Ray Rd, Phoenix, AZ, 85044"},"storeNumber":909,"name":"Ahwatukee","supertarget":false,"services":["Pharmacy","Photo Center","Fresh Grocery","Target Mobile","Wine Available","Flu Shot"],"pharmacy":true,"hours":["M-Fr: 8:00 a.m.- 10:00 p.m.","Sa: 8:00 a.m. - 10:00 p.m.","Su: 8:00 a.m.- 9:00 p.m.","12/9 - 12/22 we will be open Mon-Sat 8:00AM-12:00AM and Sun 8:00AM-11:00PM"]},{"location":{"stateCode":"AZ","latitude":33.4789,"longitude":-111.984,"displayAddress":"4515 E Thomas Rd, Phoenix, AZ, 85018"},"storeNumber":950,"name":"Arcadia Crossing","supertarget":false,"services":["Pharmacy","Fresh Grocery","Starbucks","Target Mobile","Wine Available","Flu Shot"],"pharmacy":true,"hours":["M-Fr: 8:00 a.m.- 11:00 p.m.","Sa: 8:00 a.m. - 11:00 p.m.","Su: 8:00 a.m.- 10:00 p.m.","11/25-12/15 We will open Mon-Sat 8:00AM-11:00PM and Sun 8:00AM-10:00PM."]},{"location":{"stateCode":"AZ","latitude":35.0511,"longitude":-114.592,"displayAddress":"3699 Hwy 95, Bullhead City, AZ, 86442"},"storeNumber":2368,"name":"Bullhead City","supertarget":false,"services":["Pharmacy","Starbucks","Wine Available","Flu Shot"],"pharmacy":true,"hours":["M-Fr: 8:00 a.m.- 10:00 p.m.","Sa: 8:00 a.m. - 10:00 p.m.","Su: 8:00 a.m.- 9:00 p.m.","11/25-12/22 We will open Mon-Sat 8:00AM-11:00PM and Sun 8:00AM-10:00PM.","On 12/23 hours will be 8:00AM-12:00AM."]},{"location":{"stateCode":"AZ","latitude":32.8809,"longitude":-111.684,"displayAddress":"951 N Promenade Pkwy, Casa Grande, AZ, 85194"},"storeNumber":2353,"name":"Casa Grande","supertarget":false,"services":["Pharmacy","Fresh Grocery","Starbucks","Wine Available","Flu Shot"],"pharmacy":true,"hours":["M-Fr: 8:00 a.m.- 10:00 p.m.","Sa: 8:00 a.m. - 10:00 p.m.","Su: 8:00 a.m.- 9:00 p.m.","11/25-12/22 We will open Mon-Sat 8:00AM-11:00PM and Sun 8:00AM-10:00PM.","On 12/23 hours will be 8:00AM-12:00AM."]},{"location":{"stateCode":"AZ","latitude":33.3383,"longitude":-111.844,"displayAddress":"2150 N Arizona Ave, Chandler, AZ, 85225"},"storeNumber":252,"name":"Chandler","supertarget":false,"services":["Pharmacy","Flu Shot"],"pharmacy":true,"hours":["M-Fr: 8:00 a.m.- 10:00 p.m.","Sa: 8:00 a.m. - 10:00 p.m.","Su: 8:00 a.m.- 9:00 p.m.","11/25-12/22 We will open Mon-Sat 8:00AM-11:00PM and Sun 8:00AM-10:00PM.","On 12/23 hours will be 8:00AM-12:00AM."]},{"location":{"stateCode":"AZ","latitude":33.2499,"longitude":-111.838,"displayAddress":"3777 S ARIZONA AVE, Chandler, AZ, 85248"},"storeNumber":2747,"name":"Chandler South","supertarget":false,"services":["Pharmacy","Photo Center","Fresh Grocery","Starbucks","Target Mobile","Wine Available","Flu Shot"],"pharmacy":true,"hours":["M-Fr: 8:00 a.m.- 10:00 p.m.","Sa: 8:00 a.m. - 10:00 p.m.","Su: 8:00 a.m.- 9:00 p.m.","11/25-12/15 We will open Mon-Sat 8:00AM-11:00PM and Sun 8:00AM-10:00PM."]},{"location":{"stateCode":"AZ","latitude":33.2963,"longitude":-111.899,"displayAddress":"3425 W Frye Rd, Chandler, AZ, 85226"},"storeNumber":1838,"name":"Chandler West Santan","supertarget":false,"services":["Pharmacy","Fresh Grocery","Target Mobile","Wine Available","Flu Shot"],"pharmacy":true,"hours":["M-Fr: 8:00 a.m.- 10:00 p.m.","Sa: 8:00 a.m. - 10:00 p.m.","Su: 8:00 a.m.- 9:00 p.m.","12/9 - 12/22 we will be open Mon-Sat 8:00AM-12:00AM and Sun 8:00AM-11:00PM"]},{"location":{"stateCode":"AZ","latitude":33.6381,"longitude":-112.069,"displayAddress":"16806 N 7th St, Phoenix, AZ, 85022"},"storeNumber":2236,"name":"Deer Valley SuperTarget","supertarget":true,"services":["Pharmacy","Photo Center","Optical","Fresh Grocery","Starbucks","Target Mobile","Wine Available","Flu Shot"],"pharmacy":true,"hours":["M-Fr: 8:00 a.m.- 10:00 p.m.","Sa: 8:00 a.m. - 10:00 p.m.","Su: 8:00 a.m.- 9:00 p.m.","12/9 - 12/22 we will be open Mon-Sat 8:00AM-12:00AM and Sun 8:00AM-11:00PM"]},{"location":{"stateCode":"AZ","latitude":33.7795,"longitude":-111.923,"displayAddress":"32351 N Scottsdale Rd, Scottsdale, AZ, 85262"},"storeNumber":1327,"name":"Far North Scottsdale","supertarget":false,"services":["Pharmacy","Optical","Fresh Grocery","Starbucks","Target Mobile","Wine Available","Flu Shot"],"pharmacy":true,"hours":["M-Fr: 8:00 a.m.- 10:00 p.m.","Sa: 8:00 a.m. - 10:00 p.m.","Su: 8:00 a.m.- 9:00 p.m.","11/25-12/22 We will open Mon-Sat 8:00AM-11:00PM and Sun 8:00AM-10:00PM.","On 12/23 hours will be 8:00AM-12:00AM."]},{"location":{"stateCode":"AZ","latitude":35.184,"longitude":-111.66,"displayAddress":"1650 S Milton Rd, Flagstaff, AZ, 86001"},"storeNumber":935,"name":"Flagstaff","supertarget":false,"services":["Pharmacy","Photo Center","Fresh Grocery","Starbucks","Target Mobile","Wine Available","Flu Shot"],"pharmacy":true,"hours":["M-Fr: 8:00 a.m.- 10:00 p.m.","Sa: 8:00 a.m. - 10:00 p.m.","Su: 8:00 a.m.- 9:00 p.m.","11/25-12/15 We will open Mon-Sat 8:00AM-11:00PM and Sun 8:00AM-10:00PM."]},{"location":{"stateCode":"AZ","latitude":33.5738,"longitude":-111.718,"displayAddress":"16825 E Shea Blvd, Fountain Hills, AZ, 85268"},"storeNumber":1432,"name":"Fountain Hills","supertarget":false,"services":["Pharmacy","Fresh Grocery","Wine Available","Flu Shot"],"pharmacy":true,"hours":["M-Fr: 8:00 a.m.- 10:00 p.m.","Sa: 8:00 a.m. - 10:00 p.m.","Su: 8:00 a.m.- 9:00 p.m.","11/25-12/22 We will open Mon-Sat 8:00AM-11:00PM and Sun 8:00AM-10:00PM.","On 12/23 hours will be 8:00AM-12:00AM."]},{"location":{"stateCode":"AZ","latitude":33.3342,"longitude":-111.757,"displayAddress":"1515 E Warner Rd, Gilbert, AZ, 85296"},"storeNumber":1209,"name":"Gilbert","supertarget":false,"services":["Pharmacy","Fresh Grocery","Target Mobile","Portrait Studio","Wine Available","Flu Shot"],"pharmacy":true,"hours":["M-Fr: 8:00 a.m.- 10:00 p.m.","Sa: 8:00 a.m. - 10:00 p.m.","Su: 8:00 a.m.- 9:00 p.m.","12/9 - 12/22 we will be open Mon-Sat 8:00AM-12:00AM and Sun 8:00AM-11:00PM"]},{"location":{"stateCode":"AZ","latitude":33.3228,"longitude":-111.688,"displayAddress":"5110 S Power Rd, Mesa, AZ, 85212"},"storeNumber":1959,"name":"Gilbert SE SuperTarget","supertarget":true,"services":["Pharmacy","Optical","Fresh Grocery","Starbucks","Target Mobile","Wine Available","Flu Shot"],"pharmacy":true,"hours":["M-Fr: 8:00 a.m.- 10:00 p.m.","Sa: 8:00 a.m. - 10:00 p.m.","Su: 8:00 a.m.- 9:00 p.m.","11/25-12/15 We will open Mon-Sat 8:00AM-11:00PM and Sun 8:00AM-10:00PM."]},{"location":{"stateCode":"AZ","latitude":33.279,"longitude":-111.788,"displayAddress":"3931 S Gilbert Rd, Gilbert, AZ, 85297"},"storeNumber":1960,"name":"Gilbert SW SuperTarget","supertarget":true,"services":["Pharmacy","Photo Center","Optical","Fresh Grocery","Starbucks","Target Mobile","Wine Available","Flu Shot"],"pharmacy":true,"hours":["M-Fr: 8:00 a.m.- 10:00 p.m.","Sa: 8:00 a.m. - 10:00 p.m.","Su: 8:00 a.m.- 9:00 p.m.","11/25-12/15 We will open Mon-Sat 8:00AM-11:00PM and Sun 8:00AM-10:00PM."]},{"location":{"stateCode":"AZ","latitude":33.5805,"longitude":-112.153,"displayAddress":"10404 N 43rd Ave, Glendale, AZ, 85302"},"storeNumber":2341,"name":"Glendale","supertarget":false,"services":["Pharmacy","Fresh Grocery","Starbucks","Target Mobile","Wine Available","Flu Shot"],"pharmacy":true,"hours":["M-Fr: 8:00 a.m.- 11:00 p.m.","Sa: 8:00 a.m. - 11:00 p.m.","Su: 8:00 a.m.- 10:00 p.m.","11/25-12/15 We will open Mon-Sat 8:00AM-11:00PM and Sun 8:00AM-10:00PM."]},{"location":{"stateCode":"AZ","latitude":33.4632,"longitude":-112.356,"displayAddress":"1515 N Litchfield Rd, Goodyear, AZ, 85395"},"storeNumber":1242,"name":"Goodyear","supertarget":false,"services":["Pharmacy","Optical","Fresh Grocery","Target Mobile","Portrait Studio","Wine Available","Flu Shot"],"pharmacy":true,"hours":["M-Fr: 8:00 a.m.- 10:00 p.m.","Sa: 8:00 a.m. - 10:00 p.m.","Su: 8:00 a.m.- 9:00 p.m.","11/25-12/15 We will open Mon-Sat 8:00AM-11:00PM and Sun 8:00AM-10:00PM."]},{"location":{"stateCode":"AZ","latitude":33.4375,"longitude":-112.422,"displayAddress":"995 S Cotton Ln, Goodyear, AZ, 85338"},"storeNumber":2400,"name":"Goodyear West SuperTarget","supertarget":true,"services":["Pharmacy","Optical","Fresh Grocery","Starbucks","Wine Available","Flu Shot"],"pharmacy":true,"hours":["M-Fr: 8:00 a.m.- 10:00 p.m.","Sa: 8:00 a.m. - 10:00 p.m.","Su: 8:00 a.m.- 9:00 p.m.","11/25-12/15 We will open Mon-Sat 8:00AM-11:00PM and Sun 8:00AM-10:00PM."]},{"location":{"stateCode":"AZ","latitude":33.3942,"longitude":-111.786,"displayAddress":"1135 S Gilbert Rd, Mesa, AZ, 85204"},"storeNumber":251,"name":"Mesa Central","supertarget":false,"services":["Pharmacy","Fresh Grocery","Wine Available","Flu Shot"],"pharmacy":true,"hours":["M-Fr: 8:00 a.m.- 10:00 p.m.","Sa: 8:00 a.m. - 10:00 p.m.","Su: 8:00 a.m.- 9:00 p.m.","11/25-12/15 We will open Mon-Sat 8:00AM-11:00PM and Sun 8:00AM-10:00PM."]},{"location":{"stateCode":"AZ","latitude":33.3879,"longitude":-111.684,"displayAddress":"1525 S Power Rd, Mesa, AZ, 85206"},"storeNumber":639,"name":"Mesa East","supertarget":false,"services":["Pharmacy","Fresh Grocery","Target Mobile","Wine Available","Flu Shot"],"pharmacy":true,"hours":["M-Fr: 8:00 a.m.- 10:00 p.m.","Sa: 8:00 a.m. - 10:00 p.m.","Su: 8:00 a.m.- 9:00 p.m.","11/25-12/15 We will open Mon-Sat 8:00AM-11:00PM and Sun 8:00AM-10:00PM."]},{"location":{"stateCode":"AZ","latitude":33.4537,"longitude":-111.682,"displayAddress":"2151 N Power Rd, Mesa, AZ, 85215"},"storeNumber":1386,"name":"Mesa Red Mountain","supertarget":false,"services":["Pharmacy","Optical","Fresh Grocery","Target Mobile","Portrait Studio","Wine Available","Flu Shot"],"pharmacy":true,"hours":["M-Fr: 8:00 a.m.- 10:00 p.m.","Sa: 8:00 a.m. - 10:00 p.m.","Su: 8:00 a.m.- 9:00 p.m.","12/9 - 12/22 we will be open Mon-Sat 8:00AM-12:00AM and Sun 8:00AM-11:00PM"]},{"location":{"stateCode":"AZ","latitude":33.3919,"longitude":-111.865,"displayAddress":"1230 S Longmore Ave, Mesa, AZ, 85202"},"storeNumber":1429,"name":"Mesa West","supertarget":false,"services":["Pharmacy","Fresh Grocery","Starbucks","Wine Available","Flu Shot"],"pharmacy":true,"hours":["M-Fr: 8:00 a.m.- 10:00 p.m.","Sa: 8:00 a.m. - 10:00 p.m.","Su: 8:00 a.m.- 9:00 p.m.","11/25-12/15 We will open Mon-Sat 8:00AM-11:00PM and Sun 8:00AM-10:00PM."]},{"location":{"stateCode":"AZ","latitude":33.6274,"longitude":-111.889,"displayAddress":"15444 N Frank Lloyd Wright Blvd, Scottsdale, AZ, 85260"},"storeNumber":936,"name":"North Scottsdale","supertarget":false,"services":["Pharmacy","Photo Center","Fresh Grocery","Starbucks","Target Mobile","Wine Available","Flu Shot"],"pharmacy":true,"hours":["M-Fr: 8:00 a.m.- 10:00 p.m.","Sa: 8:00 a.m. - 10:00 p.m.","Su: 8:00 a.m.- 9:00 p.m.","11/25-12/15 We will open Mon-Sat 8:00AM-11:00PM and Sun 8:00AM-10:00PM."]},{"location":{"stateCode":"AZ","latitude":32.3992,"longitude":-110.959,"displayAddress":"10555 N Oracle Rd, Oro Valley, AZ, 85737"},"storeNumber":700,"name":"Oro Valley","supertarget":false,"services":["Pharmacy","Photo Center","Fresh Grocery","Target Mobile","Wine Available","Flu Shot"],"pharmacy":true,"hours":["M-Fr: 8:00 a.m.- 10:00 p.m.","Sa: 8:00 a.m. - 10:00 p.m.","Su: 8:00 a.m.- 9:00 p.m.","12/9 - 12/22 we will be open Mon-Sat 8:00AM-12:00AM and Sun 8:00AM-11:00PM"]},{"location":{"stateCode":"AZ","latitude":33.6008,"longitude":-111.99,"displayAddress":"12602 N Paradise Village Pkwy W, Phoenix, AZ, 85032"},"storeNumber":233,"name":"Paradise Valley","supertarget":false,"services":["Pharmacy","Photo Center","Fresh Grocery","Starbucks","Target Mobile","Wine Available","Flu Shot"],"pharmacy":true,"hours":["M-Fr: 8:00 a.m.- 10:00 p.m.","Sa: 8:00 a.m. - 10:00 p.m.","Su: 8:00 a.m.- 9:00 p.m.","11/25-12/15 We will open Mon-Sat 8:00AM-11:00PM and Sun 8:00AM-10:00PM."]},{"location":{"stateCode":"AZ","latitude":33.7088,"longitude":-112.275,"displayAddress":"24890 N Lake Pleasant Pkwy, Peoria, AZ, 85383"},"storeNumber":2227,"name":"Peoria Far North SuperTarget","supertarget":true,"services":["Pharmacy","Photo Center","Optical","Fresh Grocery","Starbucks","Target Mobile","Wine Available","Flu Shot"],"pharmacy":true,"hours":["M-Fr: 8:00 a.m.- 10:00 p.m.","Sa: 8:00 a.m. - 10:00 p.m.","Su: 8:00 a.m.- 9:00 p.m.","11/25-12/15 We will open Mon-Sat 8:00AM-11:00PM and Sun 8:00AM-10:00PM."]},{"location":{"stateCode":"AZ","latitude":33.6358,"longitude":-112.228,"displayAddress":"8055 W Bell Rd, Peoria, AZ, 85382"},"storeNumber":825,"name":"Peoria North","supertarget":false,"services":["Pharmacy","Optical","Fresh Grocery","Target Mobile","Wine Available","Flu Shot"],"pharmacy":true,"hours":["M-Fr: 8:00 a.m.- 10:00 p.m.","Sa: 8:00 a.m. - 10:00 p.m.","Su: 8:00 a.m.- 9:00 p.m.","11/25-12/15 We will open Mon-Sat 8:00AM-11:00PM and Sun 8:00AM-10:00PM."]},{"location":{"stateCode":"AZ","latitude":33.5546,"longitude":-112.261,"displayAddress":"9350 W Northern Ave, Glendale, AZ, 85305"},"storeNumber":1361,"name":"Peoria SW","supertarget":false,"services":["Pharmacy","Optical","Fresh Grocery","Target Mobile","Portrait Studio","Wine Available","Flu Shot"],"pharmacy":true,"hours":["M-Fr: 8:00 a.m.- 10:00 p.m.","Sa: 8:00 a.m. - 10:00 p.m.","Su: 8:00 a.m.- 9:00 p.m.","12/9 - 12/22 we will be open Mon-Sat 8:00AM-12:00AM and Sun 8:00AM-11:00PM"]},{"location":{"stateCode":"AZ","latitude":33.6747,"longitude":-111.974,"displayAddress":"21001 N Tatum Blvd Ste 20, Phoenix, AZ, 85050"},"storeNumber":1360,"name":"Phoenix NE","supertarget":false,"services":["Pharmacy","Photo Center","Optical","Fresh Grocery","Target Mobile","Wine Available","Flu Shot"],"pharmacy":true,"hours":["M-Fr: 8:00 a.m.- 10:00 p.m.","Sa: 8:00 a.m. - 10:00 p.m.","Su: 8:00 a.m.- 9:00 p.m.","11/25-12/15 We will open Mon-Sat 8:00AM-11:00PM and Sun 8:00AM-10:00PM."]},{"location":{"stateCode":"AZ","latitude":33.6671,"longitude":-112.119,"displayAddress":"2727 W Agua Fria Fwy, Phoenix, AZ, 85027"},"storeNumber":1141,"name":"Phoenix North Central","supertarget":false,"services":["Pharmacy","Fresh Grocery","Target Mobile","Wine Available","Flu Shot"],"pharmacy":true,"hours":["M-Fr: 8:00 a.m.- 10:00 p.m.","Sa: 8:00 a.m. - 10:00 p.m.","Su: 8:00 a.m.- 9:00 p.m.","12/9 - 12/22 we will be open Mon-Sat 8:00AM-12:00AM and Sun 8:00AM-11:00PM"]},{"location":{"stateCode":"AZ","latitude":33.4236,"longitude":-112.269,"displayAddress":"9830 W Lower Buckeye Rd, Tolleson, AZ, 85353"},"storeNumber":2149,"name":"Phoenix SW","supertarget":false,"services":["Pharmacy","Fresh Grocery","Starbucks","Wine Available","Flu Shot"],"pharmacy":true,"hours":["M-Fr: 8:00 a.m.- 10:00 p.m.","Sa: 8:00 a.m. - 10:00 p.m.","Su: 8:00 a.m.- 9:00 p.m.","11/25-12/15 We will open Mon-Sat 8:00AM-11:00PM and Sun 8:00AM-10:00PM."]},{"location":{"stateCode":"AZ","latitude":33.5226,"longitude":-112.096,"displayAddress":"5715 N 19th Ave, Phoenix, AZ, 85015"},"storeNumber":2354,"name":"Phoenix Spectrum SuperTarget","supertarget":true,"services":["Pharmacy","Optical","Fresh Grocery","Starbucks","Target Mobile","Wine Available","Flu Shot"],"pharmacy":true,"hours":["M-Fr: 8:00 a.m.- 11:00 p.m.","Sa: 8:00 a.m. - 11:00 p.m.","Su: 8:00 a.m.- 10:00 p.m.","11/25-12/15 We will open Mon-Sat 8:00AM-11:00PM and Sun 8:00AM-10:00PM."]},{"location":{"stateCode":"AZ","latitude":34.5488,"longitude":-112.432,"displayAddress":"1851 E Highway 69, Prescott, AZ, 86301"},"storeNumber":884,"name":"Prescott","supertarget":false,"services":[],"pharmacy":false,"hours":["M-Fr: 8:00 a.m.- 10:00 p.m.","Sa: 8:00 a.m. - 10:00 p.m.","Su: 8:00 a.m.- 9:00 p.m.","12/9 - 12/22 we will be open Mon-Sat 8:00AM-12:00AM and Sun 8:00AM-11:00PM"]},{"location":{"stateCode":"AZ","latitude":33.2535,"longitude":-111.641,"displayAddress":"21398 S Ellsworth Loop Rd, Queen Creek, AZ, 85142"},"storeNumber":2365,"name":"Queen Creek SuperTarget","supertarget":true,"services":["Pharmacy","Optical","Fresh Grocery","Starbucks","Target Mobile","Wine Available","Flu Shot"],"pharmacy":true,"hours":["M-Fr: 8:00 a.m.- 10:00 p.m.","Sa: 8:00 a.m. - 10:00 p.m.","Su: 8:00 a.m.- 9:00 p.m.","11/25-12/15 We will open Mon-Sat 8:00AM-11:00PM and Sun 8:00AM-10:00PM."]},{"location":{"stateCode":"AZ","latitude":33.5403,"longitude":-111.888,"displayAddress":"9000 E Indian Bend Rd, Scottsdale, AZ, 85250"},"storeNumber":363,"name":"Scottsdale","supertarget":false,"services":["Pharmacy","Fresh Grocery","Target Mobile","Flu Shot"],"pharmacy":true,"hours":["M-Fr: 8:00 a.m.- 10:00 p.m.","Sa: 8:00 a.m. - 10:00 p.m.","Su: 8:00 a.m.- 9:00 p.m.","11/25-12/15 We will open Mon-Sat 8:00AM-11:00PM and Sun 8:00AM-10:00PM."]},{"location":{"stateCode":"AZ","latitude":31.5559,"longitude":-110.255,"displayAddress":"4151 E Highway 90, Sierra Vista, AZ, 85635"},"storeNumber":735,"name":"Sierra Vista","supertarget":false,"services":["Pharmacy","Photo Center","Fresh Grocery","Starbucks","Target Mobile","Flu Shot"],"pharmacy":true,"hours":["M-Fr: 8:00 a.m.- 10:00 p.m.","Sa: 8:00 a.m. - 10:00 p.m.","Su: 8:00 a.m.- 9:00 p.m.","11/25-12/22 We will open Mon-Sat 8:00AM-11:00PM and Sun 8:00AM-10:00PM.","On 12/23 hours will be 8:00AM-12:00AM."]},{"location":{"stateCode":"AZ","latitude":33.3791,"longitude":-112.034,"displayAddress":"2140 E Baseline Rd, Phoenix, AZ, 85042"},"storeNumber":1905,"name":"South Mountain","supertarget":false,"services":["Pharmacy","Fresh Grocery","Starbucks","Target Mobile","Wine Available","Flu Shot"],"pharmacy":true,"hours":["M-Fr: 8:00 a.m.- 10:00 p.m.","Sa: 8:00 a.m. - 10:00 p.m.","Su: 8:00 a.m.- 9:00 p.m.","11/25-12/15 We will open Mon-Sat 8:00AM-11:00PM and Sun 8:00AM-10:00PM."]},{"location":{"stateCode":"AZ","latitude":33.6371,"longitude":-112.352,"displayAddress":"13731 W Bell Rd, Surprise, AZ, 85374"},"storeNumber":1335,"name":"Surprise","supertarget":false,"services":["Pharmacy","Optical","Fresh Grocery","Target Mobile","Wine Available","Flu Shot"],"pharmacy":true,"hours":["M-Fr: 8:00 a.m.- 10:00 p.m.","Sa: 8:00 a.m. - 10:00 p.m.","Su: 8:00 a.m.- 9:00 p.m.","11/25-12/15 We will open Mon-Sat 8:00AM-11:00PM and Sun 8:00AM-10:00PM."]},{"location":{"stateCode":"AZ","latitude":33.4312,"longitude":-111.904,"displayAddress":"1800 E Rio Salado Pkwy Ste 120, Tempe, AZ, 85281"},"storeNumber":2176,"name":"Tempe NE","supertarget":false,"services":["Pharmacy","Photo Center","Fresh Grocery","Starbucks","Target Mobile","Wine Available","Flu Shot"],"pharmacy":true,"hours":["M-Fr: 8:00 a.m.- 11:00 p.m.","Sa: 8:00 a.m. - 11:00 p.m.","Su: 8:00 a.m.- 10:00 p.m.","11/25-12/15 We will open Mon-Sat 8:00AM-11:00PM and Sun 8:00AM-10:00PM."]},{"location":{"stateCode":"AZ","latitude":33.3795,"longitude":-111.908,"displayAddress":"1818 E Baseline Rd, Tempe, AZ, 85283"},"storeNumber":319,"name":"Tempe","supertarget":false,"services":["Pharmacy","Photo Center","Fresh Grocery","Target Mobile","Wine Available","Flu Shot"],"pharmacy":true,"hours":["M-Fr: 8:00 a.m.- 11:00 p.m.","Sa: 8:00 a.m. - 11:00 p.m.","Su: 8:00 a.m.- 10:00 p.m.","12/9 - 12/22 we will be open Mon-Sat 8:00AM-12:00AM and Sun 8:00AM-11:00PM"]},{"location":{"stateCode":"AZ","latitude":32.2228,"longitude":-110.88,"displayAddress":"5255 E Broadway Blvd, Tucson, AZ, 85711"},"storeNumber":179,"name":"Tucson Broadway","supertarget":false,"services":["Pharmacy","Fresh Grocery","Target Mobile","Wine Available","Flu Shot"],"pharmacy":true,"hours":["M-Fr: 8:00 a.m.- 11:00 p.m.","Sa: 8:00 a.m. - 11:00 p.m.","Su: 8:00 a.m.- 10:00 p.m.","12/9 - 12/22 we will be open Mon-Sat 8:00AM-12:00AM and Sun 8:00AM-11:00PM"]},{"location":{"stateCode":"AZ","latitude":32.2228,"longitude":-110.918,"displayAddress":"3699 E Broadway Blvd, Tucson, AZ, 85716"},"storeNumber":1439,"name":"Tucson El Con Mall","supertarget":false,"services":["Pharmacy","Photo Center","Fresh Grocery","Starbucks","Target Mobile","Wine Available","Flu Shot"],"pharmacy":true,"hours":["M-Fr: 8:00 a.m.- 11:00 p.m.","Sa: 8:00 a.m. - 11:00 p.m.","Su: 8:00 a.m.- 10:00 p.m.","12/9 - 12/22 we will be open Mon-Sat 8:00AM-12:00AM and Sun 8:00AM-11:00PM"]},{"location":{"stateCode":"AZ","latitude":32.2493,"longitude":-110.853,"displayAddress":"6500 E Grant Rd, Tucson, AZ, 85715"},"storeNumber":855,"name":"Tucson NE","supertarget":false,"services":["Pharmacy","Photo Center","Fresh Grocery","Target Mobile","Wine Available","Flu Shot"],"pharmacy":true,"hours":["M-Fr: 8:00 a.m.- 10:00 p.m.","Sa: 8:00 a.m. - 10:00 p.m.","Su: 8:00 a.m.- 9:00 p.m.","12/9 - 12/22 we will be open Mon-Sat 8:00AM-12:00AM and Sun 8:00AM-11:00PM"]},{"location":{"stateCode":"AZ","latitude":32.3354,"longitude":-111.049,"displayAddress":"3901 W Ina Rd, Tucson, AZ, 85741"},"storeNumber":854,"name":"Tucson NW","supertarget":false,"services":["Pharmacy","Fresh Grocery","Starbucks","Target Mobile","Wine Available","Flu Shot"],"pharmacy":true,"hours":["M-Fr: 8:00 a.m.- 10:00 p.m.","Sa: 8:00 a.m. - 10:00 p.m.","Su: 8:00 a.m.- 9:00 p.m.","12/9 - 12/22 we will be open Mon-Sat 8:00AM-12:00AM and Sun 8:00AM-11:00PM"]},{"location":{"stateCode":"AZ","latitude":32.2802,"longitude":-110.977,"displayAddress":"4040 N Oracle Rd, Tucson, AZ, 85705"},"storeNumber":2140,"name":"Tucson North SuperTarget","supertarget":true,"services":["Pharmacy","Photo Center","Optical","Fresh Grocery","Starbucks","Target Mobile","Wine Available","Flu Shot"],"pharmacy":true,"hours":["M-Fr: 8:00 a.m.- 11:00 p.m.","Sa: 8:00 a.m. - 11:00 p.m.","Su: 8:00 a.m.- 10:00 p.m.","11/25-12/22 We will open Mon-Sat 8:00AM-12:00AM and Sun 8:00AM-11:00PM.","On 12/23 hours will be 8:00AM-12:00AM."]},{"location":{"stateCode":"AZ","latitude":32.2081,"longitude":-110.788,"displayAddress":"9615 E Old Spanish Trl, Tucson, AZ, 85748"},"storeNumber":1863,"name":"Tucson SE","supertarget":false,"services":["Pharmacy","Photo Center","Optical","Fresh Grocery","Starbucks","Target Mobile","Wine Available","Flu Shot"],"pharmacy":true,"hours":["M-Fr: 8:00 a.m.- 10:00 p.m.","Sa: 8:00 a.m. - 10:00 p.m.","Su: 8:00 a.m.- 9:00 p.m.","11/25-12/15 We will open Mon-Sat 8:00AM-11:00PM and Sun 8:00AM-10:00PM."]},{"location":{"stateCode":"AZ","latitude":32.1606,"longitude":-110.989,"displayAddress":"1225 W Irvington Rd, Tucson, AZ, 85714"},"storeNumber":1316,"name":"Tucson SW","supertarget":false,"services":["Pharmacy","Optical","Fresh Grocery","Target Mobile","Portrait Studio","Wine Available","Flu Shot"],"pharmacy":true,"hours":["M-Fr: 8:00 a.m.- 11:00 p.m.","Sa: 8:00 a.m. - 11:00 p.m.","Su: 8:00 a.m.- 10:00 p.m.","11/25-12/15 We will open Mon-Sat 8:00AM-11:00PM and Sun 8:00AM-10:00PM."]},{"location":{"stateCode":"AZ","latitude":33.4758,"longitude":-112.218,"displayAddress":"7409 W Virginia Ave, Phoenix, AZ, 85035"},"storeNumber":851,"name":"Westridge","supertarget":false,"services":["Pharmacy","Starbucks","Wine Available","Flu Shot"],"pharmacy":true,"hours":["M-Fr: 8:00 a.m.- 10:00 p.m.","Sa: 8:00 a.m. - 10:00 p.m.","Su: 8:00 a.m.- 9:00 p.m.","11/25-12/15 We will open Mon-Sat 8:00AM-11:00PM and Sun 8:00AM-10:00PM."]},{"location":{"stateCode":"AZ","latitude":32.7006,"longitude":-114.602,"displayAddress":"1450 S Yuma Palms Pkwy, Yuma, AZ, 85365"},"storeNumber":2083,"name":"Yuma","supertarget":false,"services":["Pharmacy","Fresh Grocery","Starbucks","Target Mobile","Wine Available","Flu Shot"],"pharmacy":true,"hours":["M-Fr: 8:00 a.m.- 10:00 p.m.","Sa: 8:00 a.m. - 10:00 p.m.","Su: 8:00 a.m.- 9:00 p.m.","11/25-12/22 We will open Mon-Sat 8:00AM-11:00PM and Sun 8:00AM-10:00PM.","On 12/23 hours will be 8:00AM-12:00AM."]},{"location":{"stateCode":"AR","latitude":34.6043,"longitude":-92.5321,"displayAddress":"7377 Alcoa Rd, Bryant, AR, 72022"},"storeNumber":2204,"name":"Bryant","supertarget":false,"services":["Pharmacy","Starbucks","Flu Shot"],"pharmacy":true,"hours":["M-Fr: 8:00 a.m.- 10:00 p.m.","Sa: 8:00 a.m. - 10:00 p.m.","Su: 8:00 a.m.- 9:00 p.m.","11/25-12/15 We will open Mon-Sat 8:00AM-11:00PM and Sun 8:00AM-10:00PM."]},{"location":{"stateCode":"AR","latitude":35.0871,"longitude":-92.4135,"displayAddress":"501 Elsinger Blvd, Conway, AR, 72032"},"storeNumber":1891,"name":"Conway","supertarget":false,"services":["Pharmacy","Starbucks","Target Mobile","Flu Shot"],"pharmacy":true,"hours":["M-Fr: 8:00 a.m.- 10:00 p.m.","Sa: 8:00 a.m. - 10:00 p.m.","Su: 8:00 a.m.- 9:00 p.m.","12/9 - 12/22 we will be open Mon-Sat 8:00AM-12:00AM and Sun 8:00AM-11:00PM"]},{"location":{"stateCode":"AR","latitude":36.1157,"longitude":-94.1555,"displayAddress":"3545 N Shiloh Dr, Fayetteville, AR, 72703"},"storeNumber":1470,"name":"Fayetteville","supertarget":false,"services":["Pharmacy","Flu Shot"],"pharmacy":true,"hours":["M-Fr: 8:00 a.m.- 10:00 p.m.","Sa: 8:00 a.m. - 10:00 p.m.","Su: 8:00 a.m.- 9:00 p.m.","12/9 - 12/22 we will be open Mon-Sat 8:00AM-12:00AM and Sun 8:00AM-11:00PM"]},{"location":{"stateCode":"AR","latitude":35.3394,"longitude":-94.3896,"displayAddress":"4001 Phoenix Ave, Fort Smith, AR, 72903"},"storeNumber":2284,"name":"Fort Smith","supertarget":false,"services":["Pharmacy","Starbucks","Wine Available","Flu Shot"],"pharmacy":true,"hours":["M-Fr: 8:00 a.m.- 10:00 p.m.","Sa: 8:00 a.m. - 10:00 p.m.","Su: 8:00 a.m.- 9:00 p.m.","11/25-12/15 We will open Mon-Sat 8:00AM-11:00PM and Sun 8:00AM-10:00PM."]},{"location":{"stateCode":"AR","latitude":35.8228,"longitude":-90.6668,"displayAddress":"3000 E Highland Dr Ste A, Jonesboro, AR, 72401"},"storeNumber":1919,"name":"Jonesboro","supertarget":false,"services":["Pharmacy","Starbucks","Target Mobile","Flu Shot"],"pharmacy":true,"hours":["M-Fr: 8:00 a.m.- 10:00 p.m.","Sa: 8:00 a.m. - 10:00 p.m.","Su: 8:00 a.m.- 9:00 p.m.","11/25-12/22 We will open Mon-Sat 8:00AM-11:00PM and Sun 8:00AM-10:00PM.","On 12/23 hours will be 8:00AM-12:00AM."]},{"location":{"stateCode":"AR","latitude":34.7886,"longitude":-92.2284,"displayAddress":"4000 McCain Blvd, North Little Rock, AR, 72116"},"storeNumber":162,"name":"Little Rock North","supertarget":false,"services":[],"pharmacy":false,"hours":["M-Fr: 8:00 a.m.- 10:00 p.m.","Sa: 8:00 a.m. - 10:00 p.m.","Su: 8:00 a.m.- 9:00 p.m.","11/25-12/15 We will open Mon-Sat 8:00AM-11:00PM and Sun 8:00AM-10:00PM."]},{"location":{"stateCode":"AR","latitude":34.7493,"longitude":-92.3448,"displayAddress":"420 S University Ave, Little Rock, AR, 72205"},"storeNumber":2737,"name":"Little Rock Univer","supertarget":false,"services":["Pharmacy","Photo Center","Fresh Grocery","Starbucks","Target Mobile","Wine Available","Flu Shot"],"pharmacy":true,"hours":["M-Fr: 8:00 a.m.- 10:00 p.m.","Sa: 8:00 a.m. - 10:00 p.m.","Su: 8:00 a.m.- 9:00 p.m.","11/25-12/15 We will open Mon-Sat 8:00AM-11:00PM and Sun 8:00AM-10:00PM."]},{"location":{"stateCode":"AR","latitude":34.7556,"longitude":-92.414,"displayAddress":"12700 Chenal Pkwy, Little Rock, AR, 72211"},"storeNumber":1114,"name":"Little Rock West","supertarget":false,"services":["Pharmacy","Starbucks","Target Mobile","Wine Available","Flu Shot"],"pharmacy":true,"hours":["M-Fr: 8:00 a.m.- 10:00 p.m.","Sa: 8:00 a.m. - 10:00 p.m.","Su: 8:00 a.m.- 9:00 p.m.","11/25-12/15 We will open Mon-Sat 8:00AM-11:00PM and Sun 8:00AM-10:00PM."]},{"location":{"stateCode":"AR","latitude":36.2995,"longitude":-94.1735,"displayAddress":"2404 Promenade Blvd, Rogers, AR, 72758"},"storeNumber":2498,"name":"Rogers","supertarget":false,"services":["Pharmacy","Starbucks","Flu Shot"],"pharmacy":true,"hours":["M-Fr: 8:00 a.m.- 10:00 p.m.","Sa: 8:00 a.m. - 10:00 p.m.","Su: 8:00 a.m.- 9:00 p.m.","11/25-12/15 We will open Mon-Sat 8:00AM-11:00PM and Sun 8:00AM-10:00PM."]},{"location":{"stateCode":"CA","latitude":37.8832,"longitude":-122.307,"displayAddress":"1057 Eastshore Hwy, Albany, CA, 94710"},"storeNumber":1926,"name":"Albany","supertarget":false,"services":["Pharmacy","Fresh Grocery","Starbucks","Target Mobile","Wine Available","Flu Shot"],"pharmacy":true,"hours":["M-Fr: 8:00 a.m.- 11:00 p.m.","Sa: 8:00 a.m. - 11:00 p.m.","Su: 8:00 a.m.- 10:00 p.m.","11/25-12/22 We will open Mon-Sat 8:00AM-12:00AM and Sun 8:00AM-11:00PM.","On 12/23 hours will be 8:00AM-12:00AM."]},{"location":{"stateCode":"CA","latitude":34.0908,"longitude":-118.148,"displayAddress":"2120 W Main St, Alhambra, CA, 91801"},"storeNumber":184,"name":"Alhambra","supertarget":false,"services":["Pharmacy","Photo Center","Fresh Grocery","Starbucks","Target Mobile","Wine Available","Flu Shot"],"pharmacy":true,"hours":["M-Fr: 8:00 a.m.- 11:00 p.m.","Sa: 8:00 a.m. - 11:00 p.m.","Su: 8:00 a.m.- 10:00 p.m.","11/25-12/22 We will open Mon-Sat 8:00AM-12:00AM and Sun 8:00AM-11:00PM.","On 12/23 hours will be 8:00AM-12:00AM."]},{"location":{"stateCode":"CA","latitude":33.5708,"longitude":-117.705,"displayAddress":"26932 La Paz Rd, Aliso Viejo, CA, 92656"},"storeNumber":259,"name":"Aliso Viejo","supertarget":false,"services":["Pharmacy","Photo Center","Optical","Fresh Grocery","Starbucks","Target Mobile","Flu Shot"],"pharmacy":true,"hours":["M-Fr: 8:00 a.m.- 11:00 p.m.","Sa: 8:00 a.m. - 11:00 p.m.","Su: 8:00 a.m.- 10:00 p.m.","11/25-12/15 We will open Mon-Sat 8:00AM-11:00PM and Sun 8:00AM-10:00PM."]},{"location":{"stateCode":"CA","latitude":33.8658,"longitude":-117.747,"displayAddress":"8148 E Santa Ana Canyon Rd, Anaheim, CA, 92808"},"storeNumber":677,"name":"Anaheim Hills","supertarget":false,"services":["Pharmacy","Photo Center","Fresh Grocery","Target Mobile","Wine Available","In-Store Apple Store","Flu Shot"],"pharmacy":true,"hours":["M-Fr: 8:00 a.m.- 10:00 p.m.","Sa: 8:00 a.m. - 10:00 p.m.","Su: 8:00 a.m.- 9:00 p.m.","11/25-12/15 We will open Mon-Sat 8:00AM-11:00PM and Sun 8:00AM-10:00PM."]},{"location":{"stateCode":"CA","latitude":33.8312,"longitude":-117.943,"displayAddress":"101 S Euclid St, Anaheim, CA, 92802"},"storeNumber":2421,"name":"Anaheim","supertarget":false,"services":["Pharmacy","Photo Center","Fresh Grocery","Starbucks","Target Mobile","Wine Available","Flu Shot"],"pharmacy":true,"hours":["M-Fr: 8:00 a.m.- 11:00 p.m.","Sa: 8:00 a.m. - 11:00 p.m.","Su: 8:00 a.m.- 10:00 p.m.","11/25-12/15 We will open Mon-Sat 8:00AM-11:00PM and Sun 8:00AM-10:00PM."]},{"location":{"stateCode":"CA","latitude":37.964,"longitude":-121.738,"displayAddress":"5769 Lone Tree Way, Antioch, CA, 94531"},"storeNumber":1819,"name":"Antioch Slatten Ranch","supertarget":false,"services":["Pharmacy","Photo Center","Fresh Grocery","Target Mobile","Wine Available","Flu Shot"],"pharmacy":true,"hours":["M-Fr: 8:00 a.m.- 11:00 p.m.","Sa: 8:00 a.m. - 11:00 p.m.","Su: 8:00 a.m.- 10:00 p.m.","11/25-12/22 We will open Mon-Sat 8:00AM-12:00AM and Sun 8:00AM-11:00PM.","On 12/23 hours will be 8:00AM-12:00AM."]},{"location":{"stateCode":"CA","latitude":34.5276,"longitude":-117.219,"displayAddress":"20288 US Hwy 18, Apple Valley, CA, 92307"},"storeNumber":2260,"name":"Apple Valley North SuperTarget","supertarget":true,"services":["Pharmacy","Photo Center","Optical","Fresh Grocery","Starbucks","Target Mobile","Wine Available","Flu Shot"],"pharmacy":true,"hours":["M-Fr: 8:00 a.m.- 10:00 p.m.","Sa: 8:00 a.m. - 10:00 p.m.","Su: 8:00 a.m.- 9:00 p.m.","11/25-12/15 We will open Mon-Sat 8:00AM-11:00PM and Sun 8:00AM-10:00PM."]},{"location":{"stateCode":"CA","latitude":37.3404,"longitude":-120.611,"displayAddress":"1000 Commerce Ave, Atwater, CA, 95301"},"storeNumber":2386,"name":"Atwater SuperTarget","supertarget":true,"services":["Pharmacy","Photo Center","Optical","Fresh Grocery","Starbucks","Target Mobile","Wine Available","Flu Shot"],"pharmacy":true,"hours":["M-Fr: 8:00 a.m.- 10:00 p.m.","Sa: 8:00 a.m. - 10:00 p.m.","Su: 8:00 a.m.- 9:00 p.m.","11/25-12/15 We will open Mon-Sat 8:00AM-11:00PM and Sun 8:00AM-10:00PM."]},{"location":{"stateCode":"CA","latitude":38.9431,"longitude":-121.096,"displayAddress":"2700 Bell Rd, Auburn, CA, 95603"},"storeNumber":1097,"name":"Auburn","supertarget":false,"services":["Pharmacy","Photo Center","Fresh Grocery","Starbucks","Target Mobile","Wine Available","Flu Shot"],"pharmacy":true,"hours":["M-Fr: 8:00 a.m.- 10:00 p.m.","Sa: 8:00 a.m. - 10:00 p.m.","Su: 8:00 a.m.- 9:00 p.m.","11/25-12/15 We will open Mon-Sat 8:00AM-11:00PM and Sun 8:00AM-10:00PM."]},{"location":{"stateCode":"CA","latitude":34.1371,"longitude":-117.908,"displayAddress":"809 N Azusa Ave, Azusa, CA, 91702"},"storeNumber":2627,"name":"Azusa","supertarget":false,"services":["Pharmacy","Photo Center","Fresh Grocery","Starbucks","Wine Available","Flu Shot"],"pharmacy":true,"hours":["M-Fr: 8:00 a.m.- 11:00 p.m.","Sa: 8:00 a.m. - 11:00 p.m.","Su: 8:00 a.m.- 10:00 p.m.","11/25-12/15 We will open Mon-Sat 8:00AM-11:00PM and Sun 8:00AM-10:00PM."]},{"location":{"stateCode":"CA","latitude":35.3365,"longitude":-119.036,"displayAddress":"2901 Ming Ave, Bakersfield, CA, 93304"},"storeNumber":2524,"name":"Bakersfield Central","supertarget":false,"services":["Pharmacy","Photo Center","Fresh Grocery","Starbucks","Wine Available","Flu Shot"],"pharmacy":true,"hours":["M-Fr: 8:00 a.m.- 10:00 p.m.","Sa: 8:00 a.m. - 10:00 p.m.","Su: 8:00 a.m.- 9:00 p.m.","11/25-12/15 We will open Mon-Sat 8:00AM-11:00PM and Sun 8:00AM-10:00PM."]},{"location":{"stateCode":"CA","latitude":35.3939,"longitude":-118.956,"displayAddress":"3401 Mall View Rd, Bakersfield, CA, 93306"},"storeNumber":614,"name":"Bakersfield NE","supertarget":false,"services":["Pharmacy","Photo Center","Fresh Grocery","Target Mobile","Wine Available","Flu Shot"],"pharmacy":true,"hours":["M-Fr: 8:00 a.m.- 11:00 p.m.","Sa: 8:00 a.m. - 11:00 p.m.","Su: 8:00 a.m.- 10:00 p.m.","11/25-12/15 We will open Mon-Sat 8:00AM-11:00PM and Sun 8:00AM-10:00PM."]},{"location":{"stateCode":"CA","latitude":35.3846,"longitude":-119.103,"displayAddress":"9100 Rosedale Hwy, Bakersfield, CA, 93312"},"storeNumber":1384,"name":"Bakersfield NW","supertarget":false,"services":["Pharmacy","Photo Center","Optical","Fresh Grocery","Starbucks","Target Mobile","Wine Available","Flu Shot"],"pharmacy":true,"hours":["M-Fr: 8:00 a.m.- 11:00 p.m.","Sa: 8:00 a.m. - 11:00 p.m.","Su: 8:00 a.m.- 10:00 p.m.","11/25-12/15 We will open Mon-Sat 8:00AM-11:00PM and Sun 8:00AM-10:00PM."]},{"location":{"stateCode":"CA","latitude":35.3499,"longitude":-119.125,"displayAddress":"11000 Stockdale Hwy, Bakersfield, CA, 93311"},"storeNumber":2715,"name":"Bakersfield West","supertarget":false,"services":["Pharmacy","Photo Center","Fresh Grocery","Starbucks","Target Mobile","Wine Available","Flu Shot"],"pharmacy":true,"hours":["M-Fr: 8:00 a.m.- 11:00 p.m.","Sa: 8:00 a.m. - 11:00 p.m.","Su: 8:00 a.m.- 10:00 p.m.","11/25-12/15 We will open Mon-Sat 8:00AM-11:00PM and Sun 8:00AM-10:00PM."]},{"location":{"stateCode":"CA","latitude":32.8218,"longitude":-117.179,"displayAddress":"5680 Balboa Ave, San Diego, CA, 92111"},"storeNumber":2465,"name":"Balboa","supertarget":false,"services":["Pharmacy","Photo Center","Fresh Grocery","Starbucks","Target Mobile","Wine Available","Flu Shot"],"pharmacy":true,"hours":["M-Fr: 8:00 a.m.- 11:00 p.m.","Sa: 8:00 a.m. - 11:00 p.m.","Su: 8:00 a.m.- 10:00 p.m.","11/25-12/22 We will open Mon-Sat 8:00AM-12:00AM and Sun 8:00AM-11:00PM.","On 12/23 hours will be 8:00AM-12:00AM."]},{"location":{"stateCode":"CA","latitude":34.0698,"longitude":-117.978,"displayAddress":"3100 Baldwin Park Blvd, Baldwin Park, CA, 91706"},"storeNumber":1033,"name":"Baldwin Park","supertarget":false,"services":["Photo Center","Fresh Grocery","Target Mobile","Wine Available"],"pharmacy":false,"hours":["M-Fr: 8:00 a.m.- 11:00 p.m.","Sa: 8:00 a.m. - 11:00 p.m.","Su: 8:00 a.m.- 10:00 p.m.","12/9 - 12/22 we will be open Mon-Sat 8:00AM-12:00AM and Sun 8:00AM-11:00PM"]},{"location":{"stateCode":"CA","latitude":38.6728,"longitude":-121.274,"displayAddress":"5837 Sunrise Blvd, Citrus Heights, CA, 95610"},"storeNumber":1121,"name":"Birdcage-Citrus Heights","supertarget":false,"services":["Pharmacy","Photo Center","Fresh Grocery","Starbucks","Target Mobile","Wine Available","Flu Shot"],"pharmacy":true,"hours":["M-Fr: 8:00 a.m.- 10:00 p.m.","Sa: 8:00 a.m. - 10:00 p.m.","Su: 8:00 a.m.- 9:00 p.m.","11/25-12/15 We will open Mon-Sat 8:00AM-11:00PM and Sun 8:00AM-10:00PM."]},{"location":{"stateCode":"CA","latitude":33.9189,"longitude":-117.888,"displayAddress":"855 E Birch St, Brea, CA, 92821"},"storeNumber":2482,"name":"Brea","supertarget":false,"services":["Pharmacy","Photo Center","Fresh Grocery","Starbucks","Target Mobile","Wine Available","Flu Shot"],"pharmacy":true,"hours":["M-Fr: 8:00 a.m.- 11:00 p.m.","Sa: 8:00 a.m. - 11:00 p.m.","Su: 8:00 a.m.- 10:00 p.m.","11/25-12/15 We will open Mon-Sat 8:00AM-11:00PM and Sun 8:00AM-10:00PM."]},{"location":{"stateCode":"CA","latitude":33.7618,"longitude":-117.956,"displayAddress":"13831 Brookhurst St, Garden Grove, CA, 92843"},"storeNumber":193,"name":"Brookhurst","supertarget":false,"services":["Pharmacy","Photo Center","Fresh Grocery","Target Mobile","Wine Available","Flu Shot"],"pharmacy":true,"hours":["M-Fr: 8:00 a.m.- 10:00 p.m.","Sa: 8:00 a.m. - 10:00 p.m.","Su: 8:00 a.m.- 9:00 p.m.","11/25-12/15 We will open Mon-Sat 8:00AM-11:00PM and Sun 8:00AM-10:00PM."]},{"location":{"stateCode":"CA","latitude":33.8575,"longitude":-118.0,"displayAddress":"7530 Orangethorpe Ave, Buena Park, CA, 90621"},"storeNumber":2082,"name":"Buena Park","supertarget":false,"services":["Pharmacy","Photo Center","Fresh Grocery","Starbucks","Target Mobile","Wine Available","Flu Shot"],"pharmacy":true,"hours":["M-Fr: 8:00 a.m.- 11:00 p.m.","Sa: 8:00 a.m. - 11:00 p.m.","Su: 8:00 a.m.- 10:00 p.m.","12/9 - 12/22 we will be open Mon-Sat 8:00AM-12:00AM and Sun 8:00AM-11:00PM"]},{"location":{"stateCode":"CA","latitude":34.1893,"longitude":-118.33,"displayAddress":"1800 W Empire Ave, Burbank, CA, 91504"},"storeNumber":1362,"name":"Burbank","supertarget":false,"services":["Pharmacy","Photo Center","Optical","Fresh Grocery","Starbucks","Target Mobile","Wine Available","Flu Shot"],"pharmacy":true,"hours":["M-Fr: 8:00 a.m.- 11:00 p.m.","Sa: 8:00 a.m. - 11:00 p.m.","Su: 8:00 a.m.- 10:00 p.m.","11/25-12/22 We will open Mon-Sat 8:00AM-12:00AM and Sun 8:00AM-11:00PM.","On 12/23 hours will be 8:00AM-12:00AM."]},{"location":{"stateCode":"CA","latitude":34.2173,"longitude":-119.073,"displayAddress":"209 W Ventura Blvd, Camarillo, CA, 93010"},"storeNumber":1027,"name":"Camarillo","supertarget":false,"services":["Pharmacy","Photo Center","Fresh Grocery","Starbucks","Target Mobile","Wine Available","Flu Shot"],"pharmacy":true,"hours":["M-Fr: 8:00 a.m.- 11:00 p.m.","Sa: 8:00 a.m. - 11:00 p.m.","Su: 8:00 a.m.- 10:00 p.m.","12/9 - 12/22 we will be open Mon-Sat 8:00AM-12:00AM and Sun 8:00AM-11:00PM"]},{"location":{"stateCode":"CA","latitude":36.9752,"longitude":-121.966,"displayAddress":"1825 41st Ave, Capitola, CA, 95010"},"storeNumber":2795,"name":"Capitola","supertarget":false,"services":["Pharmacy","Fresh Grocery","Starbucks","Target Mobile","Wine Available","Flu Shot"],"pharmacy":true,"hours":["M-Fr: 8:00 a.m.- 10:00 p.m.","Sa: 8:00 a.m. - 10:00 p.m.","Su: 8:00 a.m.- 9:00 p.m.","11/25-12/22 We will open Mon-Sat 8:00AM-11:00PM and Sun 8:00AM-10:00PM.","On 12/23 hours will be 8:00AM-12:00AM."]},{"location":{"stateCode":"CA","latitude":33.8461,"longitude":-118.263,"displayAddress":"20700 S Avalon Blvd Ste 700, Carson, CA, 90746"},"storeNumber":2026,"name":"Carson North","supertarget":false,"services":["Pharmacy","Photo Center","Fresh Grocery","Starbucks","Target Mobile","Wine Available","In-Store Apple Store","Flu Shot"],"pharmacy":true,"hours":["M-Fr: 8:00 a.m.- 11:00 p.m.","Sa: 8:00 a.m. - 11:00 p.m.","Su: 8:00 a.m.- 10:00 p.m.","11/25-12/15 We will open Mon-Sat 8:00AM-11:00PM and Sun 8:00AM-10:00PM."]},{"location":{"stateCode":"CA","latitude":33.8095,"longitude":-118.286,"displayAddress":"651 W Sepulveda Blvd, Carson, CA, 90745"},"storeNumber":2328,"name":"Carson","supertarget":false,"services":["Pharmacy","Photo Center","Fresh Grocery","Starbucks","Target Mobile","Wine Available","Flu Shot"],"pharmacy":true,"hours":["M-Fr: 8:00 a.m.- 11:00 p.m.","Sa: 8:00 a.m. - 11:00 p.m.","Su: 8:00 a.m.- 10:00 p.m.","11/25-12/22 We will open Mon-Sat 8:00AM-12:00AM and Sun 8:00AM-11:00PM.","On 12/23 hours will be 8:00AM-12:00AM."]},{"location":{"stateCode":"CA","latitude":33.8472,"longitude":-118.063,"displayAddress":"20200 Bloomfield Ave, Cerritos, CA, 90703"},"storeNumber":289,"name":"Cerritos","supertarget":false,"services":["Pharmacy","Photo Center","Fresh Grocery","Wine Available","Flu Shot"],"pharmacy":true,"hours":["M-Fr: 8:00 a.m.- 10:00 p.m.","Sa: 8:00 a.m. - 10:00 p.m.","Su: 8:00 a.m.- 9:00 p.m.","11/25-12/15 We will open Mon-Sat 8:00AM-11:00PM and Sun 8:00AM-10:00PM."]},{"location":{"stateCode":"CA","latitude":33.8594,"longitude":-118.089,"displayAddress":"11525 South St, Cerritos, CA, 90703"},"storeNumber":1305,"name":"Cerritos West","supertarget":false,"services":["Pharmacy","Photo Center","Optical","Fresh Grocery","Target Mobile","Portrait Studio","Wine Available","Flu Shot"],"pharmacy":true,"hours":["M-Fr: 8:00 a.m.- 11:00 p.m.","Sa: 8:00 a.m. - 11:00 p.m.","Su: 8:00 a.m.- 10:00 p.m.","12/9 - 12/22 we will be open Mon-Sat 8:00AM-12:00AM and Sun 8:00AM-11:00PM"]},{"location":{"stateCode":"CA","latitude":39.7256,"longitude":-121.807,"displayAddress":"1951 E 20th St, Chico, CA, 95928"},"storeNumber":317,"name":"Chico","supertarget":false,"services":["Fresh Grocery","Target Mobile","Wine Available"],"pharmacy":false,"hours":["M-Fr: 8:00 a.m.- 10:00 p.m.","Sa: 8:00 a.m. - 10:00 p.m.","Su: 8:00 a.m.- 9:00 p.m.","11/25-12/15 We will open Mon-Sat 8:00AM-11:00PM and Sun 8:00AM-10:00PM."]},{"location":{"stateCode":"CA","latitude":34.0022,"longitude":-117.719,"displayAddress":"3944 Grand Ave, Chino, CA, 91710"},"storeNumber":912,"name":"Chino Hills","supertarget":false,"services":["Pharmacy","Photo Center","Fresh Grocery","Starbucks","Target Mobile","Wine Available","Flu Shot"],"pharmacy":true,"hours":["M-Fr: 8:00 a.m.- 11:00 p.m.","Sa: 8:00 a.m. - 11:00 p.m.","Su: 8:00 a.m.- 10:00 p.m.","11/25-12/15 We will open Mon-Sat 8:00AM-11:00PM and Sun 8:00AM-10:00PM."]},{"location":{"stateCode":"CA","latitude":34.0312,"longitude":-117.684,"displayAddress":"5555 Philadelphia St, Chino, CA, 91710"},"storeNumber":258,"name":"Chino","supertarget":false,"services":["Pharmacy","Photo Center","Fresh Grocery","Target Mobile","Wine Available","Flu Shot"],"pharmacy":true,"hours":["M-Fr: 8:00 a.m.- 11:00 p.m.","Sa: 8:00 a.m. - 11:00 p.m.","Su: 8:00 a.m.- 10:00 p.m.","11/25-12/15 We will open Mon-Sat 8:00AM-11:00PM and Sun 8:00AM-10:00PM."]},{"location":{"stateCode":"CA","latitude":32.6046,"longitude":-117.08,"displayAddress":"1240 Broadway, Chula Vista, CA, 91911"},"storeNumber":203,"name":"Chula Vista Broadway","supertarget":false,"services":["Pharmacy","Photo Center","Fresh Grocery","Target Mobile","Wine Available","Flu Shot"],"pharmacy":true,"hours":["M-Fr: 8:00 a.m.- 11:00 p.m.","Sa: 8:00 a.m. - 11:00 p.m.","Su: 8:00 a.m.- 10:00 p.m.","11/25-12/22 We will open Mon-Sat 8:00AM-12:00AM and Sun 8:00AM-11:00PM.","On 12/23 hours will be 8:00AM-12:00AM."]},{"location":{"stateCode":"CA","latitude":32.6498,"longitude":-116.969,"displayAddress":"910 Eastlake Pkwy, Chula Vista, CA, 91914"},"storeNumber":1815,"name":"Chula Vista East","supertarget":false,"services":["Photo Center","Fresh Grocery","Target Mobile","Wine Available"],"pharmacy":false,"hours":["M-Fr: 8:00 a.m.- 11:00 p.m.","Sa: 8:00 a.m. - 11:00 p.m.","Su: 8:00 a.m.- 10:00 p.m.","11/25-12/15 We will open Mon-Sat 8:00AM-11:00PM and Sun 8:00AM-10:00PM."]},{"location":{"stateCode":"CA","latitude":32.6512,"longitude":-117.089,"displayAddress":"40 N 4th Ave, Chula Vista, CA, 91910"},"storeNumber":204,"name":"Chula Vista North 4th","supertarget":false,"services":["Target Mobile"],"pharmacy":false,"hours":["M-Fr: 8:00 a.m.- 10:00 p.m.","Sa: 8:00 a.m. - 10:00 p.m.","Su: 8:00 a.m.- 9:00 p.m.","11/25-12/15 We will open Mon-Sat 8:00AM-11:00PM and Sun 8:00AM-10:00PM."]},{"location":{"stateCode":"CA","latitude":36.8386,"longitude":-119.728,"displayAddress":"695 W Herndon Ave, Clovis, CA, 93612"},"storeNumber":2018,"name":"Clovis NW","supertarget":false,"services":["Pharmacy","Photo Center","Fresh Grocery","Starbucks","Target Mobile","Wine Available","Flu Shot"],"pharmacy":true,"hours":["M-Fr: 8:00 a.m.- 11:00 p.m.","Sa: 8:00 a.m. - 11:00 p.m.","Su: 8:00 a.m.- 10:00 p.m.","11/25-12/22 We will open Mon-Sat 8:00AM-12:00AM and Sun 8:00AM-11:00PM.","On 12/23 hours will be 8:00AM-12:00AM."]},{"location":{"stateCode":"CA","latitude":36.8067,"longitude":-119.698,"displayAddress":"900 Shaw Ave, Clovis, CA, 93612"},"storeNumber":358,"name":"Clovis","supertarget":false,"services":["Pharmacy","Photo Center","Fresh Grocery","Target Mobile","Wine Available","Flu Shot"],"pharmacy":true,"hours":["M-Fr: 8:00 a.m.- 11:00 p.m.","Sa: 8:00 a.m. - 11:00 p.m.","Su: 8:00 a.m.- 10:00 p.m.","11/25-12/15 We will open Mon-Sat 8:00AM-11:00PM and Sun 8:00AM-10:00PM."]},{"location":{"stateCode":"CA","latitude":37.6736,"longitude":-122.465,"displayAddress":"5001 Junipero Serra Blvd, Colma, CA, 94014"},"storeNumber":320,"name":"Colma","supertarget":false,"services":["Pharmacy","Photo Center","Fresh Grocery","Starbucks","Target Mobile","Wine Available","In-Store Apple Store","Flu Shot"],"pharmacy":true,"hours":["M-Fr: 8:00 a.m.- 11:00 p.m.","Sa: 8:00 a.m. - 11:00 p.m.","Su: 8:00 a.m.- 10:00 p.m.","11/25-12/22 We will open Mon-Sat 8:00AM-12:00AM and Sun 8:00AM-11:00PM.","On 12/23 hours will be 8:00AM-12:00AM."]},{"location":{"stateCode":"CA","latitude":34.0184,"longitude":-118.152,"displayAddress":"5600 Whittier Blvd, Los Angeles, CA, 90022"},"storeNumber":189,"name":"Commerce","supertarget":false,"services":["Pharmacy","Photo Center","Fresh Grocery","Target Mobile","Flu Shot"],"pharmacy":true,"hours":["M-Fr: 8:00 a.m.- 11:00 p.m.","Sa: 8:00 a.m. - 11:00 p.m.","Su: 8:00 a.m.- 10:00 p.m.","12/9 - 12/22 we will be open Mon-Sat 8:00AM-12:00AM and Sun 8:00AM-11:00PM"]},{"location":{"stateCode":"CA","latitude":33.88,"longitude":-118.219,"displayAddress":"1621 S Alameda St, Compton, CA, 90220"},"storeNumber":2275,"name":"Compton-Rancho Dom","supertarget":false,"services":["Pharmacy","Photo Center","Fresh Grocery","Starbucks","Target Mobile","Wine Available","Flu Shot"],"pharmacy":true,"hours":["M-Fr: 8:00 a.m.- 10:00 p.m.","Sa: 8:00 a.m. - 10:00 p.m.","Su: 8:00 a.m.- 9:00 p.m.","11/25-12/15 We will open Mon-Sat 8:00AM-11:00PM and Sun 8:00AM-10:00PM."]},{"location":{"stateCode":"CA","latitude":33.8244,"longitude":-117.511,"displayAddress":"2615 Tuscanny St, Corona, CA, 92881"},"storeNumber":1548,"name":"Corona","supertarget":false,"services":["Pharmacy","Photo Center","Fresh Grocery","Target Mobile","Wine Available","Flu Shot"],"pharmacy":true,"hours":["M-Fr: 8:00 a.m.- 10:00 p.m.","Sa: 8:00 a.m. - 10:00 p.m.","Su: 8:00 a.m.- 9:00 p.m.","11/25-12/15 We will open Mon-Sat 8:00AM-11:00PM and Sun 8:00AM-10:00PM."]},{"location":{"stateCode":"CA","latitude":33.6825,"longitude":-117.918,"displayAddress":"3030 Harbor Blvd Ste A, Costa Mesa, CA, 92626"},"storeNumber":1293,"name":"Costa Mesa","supertarget":false,"services":["Pharmacy","Photo Center","Optical","Fresh Grocery","Starbucks","Target Mobile","Wine Available","Flu Shot"],"pharmacy":true,"hours":["M-Fr: 8:00 a.m.- 11:00 p.m.","Sa: 8:00 a.m. - 11:00 p.m.","Su: 8:00 a.m.- 10:00 p.m.","11/25-12/22 We will open Mon-Sat 8:00AM-11:00PM and Sun 8:00AM-10:00PM.","On 12/23 hours will be 8:00AM-10:00PM."]},{"location":{"stateCode":"CA","latitude":33.9994,"longitude":-118.394,"displayAddress":"10820 Jefferson Blvd, Culver City, CA, 90230"},"storeNumber":198,"name":"Culver City","supertarget":false,"services":["Pharmacy","Photo Center","Fresh Grocery","Starbucks","Target Mobile","Wine Available","Flu Shot"],"pharmacy":true,"hours":["M-Fr: 8:00 a.m.- 11:00 p.m.","Sa: 8:00 a.m. - 11:00 p.m.","Su: 8:00 a.m.- 10:00 p.m.","11/25-12/22 We will open Mon-Sat 8:00AM-12:00AM and Sun 8:00AM-11:00PM.","On 12/23 hours will be 8:00AM-12:00AM."]},{"location":{"stateCode":"CA","latitude":33.985,"longitude":-118.394,"displayAddress":"6000 Sepulveda Blvd, Culver City, CA, 90230"},"storeNumber":2632,"name":"Culver City South","supertarget":false,"services":["Pharmacy","Photo Center","Fresh Grocery","Starbucks","Target Mobile","Wine Available","Flu Shot"],"pharmacy":true,"hours":["M-Fr: 8:00 a.m.- 11:00 p.m.","Sa: 8:00 a.m. - 11:00 p.m.","Su: 8:00 a.m.- 10:00 p.m.","11/25-12/22 We will open Mon-Sat 8:00AM-12:00AM and Sun 8:00AM-11:00PM.","On 12/23 hours will be 8:00AM-12:00AM."]},{"location":{"stateCode":"CA","latitude":37.324,"longitude":-122.036,"displayAddress":"20745 Stevens Creek Blvd, Cupertino, CA, 95014"},"storeNumber":323,"name":"Cupertino","supertarget":false,"services":["Pharmacy","Photo Center","Fresh Grocery","Starbucks","Target Mobile","Wine Available","Flu Shot"],"pharmacy":true,"hours":["M-Fr: 8:00 a.m.- 11:00 p.m.","Sa: 8:00 a.m. - 11:00 p.m.","Su: 8:00 a.m.- 10:00 p.m.","11/25-12/22 We will open Mon-Sat 8:00AM-12:00AM and Sun 8:00AM-11:00PM.","On 12/23 hours will be 8:00AM-12:00AM."]},{"location":{"stateCode":"CA","latitude":33.8039,"longitude":-118.012,"displayAddress":"6835 Katella Ave, Cypress, CA, 90630"},"storeNumber":229,"name":"Cypress","supertarget":false,"services":["Pharmacy","Photo Center","Fresh Grocery","Target Mobile","Wine Available","Flu Shot"],"pharmacy":true,"hours":["M-Fr: 8:00 a.m.- 11:00 p.m.","Sa: 8:00 a.m. - 11:00 p.m.","Su: 8:00 a.m.- 10:00 p.m.","11/25-12/15 We will open Mon-Sat 8:00AM-11:00PM and Sun 8:00AM-10:00PM."]},{"location":{"stateCode":"CA","latitude":37.6704,"longitude":-122.471,"displayAddress":"133 Serramonte Ctr, Daly City, CA, 94015"},"storeNumber":1407,"name":"Daly City Serramonte","supertarget":false,"services":["Pharmacy","Photo Center","Optical","Fresh Grocery","Target Mobile","Wine Available","Flu Shot"],"pharmacy":true,"hours":["M-Fr: 8:00 a.m.- 11:00 p.m.","Sa: 8:00 a.m. - 11:00 p.m.","Su: 8:00 a.m.- 10:00 p.m.","11/25-12/22 We will open Mon-Sat 8:00AM-12:00AM and Sun 8:00AM-11:00PM.","On 12/23 hours will be 8:00AM-12:00AM."]},{"location":{"stateCode":"CA","latitude":38.5542,"longitude":-121.699,"displayAddress":"4601 2nd St, Davis, CA, 95618"},"storeNumber":2455,"name":"Davis","supertarget":false,"services":["Pharmacy","Photo Center","Fresh Grocery","Starbucks","Target Mobile","Wine Available","Flu Shot"],"pharmacy":true,"hours":["M-Fr: 8:00 a.m.- 11:00 p.m.","Sa: 8:00 a.m. - 11:00 p.m.","Su: 8:00 a.m.- 10:00 p.m.","11/25-12/15 We will open Mon-Sat 8:00AM-11:00PM and Sun 8:00AM-10:00PM."]},{"location":{"stateCode":"CA","latitude":34.0034,"longitude":-117.821,"displayAddress":"747 Grand Ave, Diamond Bar, CA, 91765"},"storeNumber":2179,"name":"Diamond Bar","supertarget":false,"services":["Pharmacy","Photo Center","Fresh Grocery","Starbucks","Target Mobile","Wine Available","In-Store Apple Store","Flu Shot"],"pharmacy":true,"hours":["M-Fr: 8:00 a.m.- 11:00 p.m.","Sa: 8:00 a.m. - 11:00 p.m.","Su: 8:00 a.m.- 10:00 p.m.","11/25-12/15 We will open Mon-Sat 8:00AM-11:00PM and Sun 8:00AM-10:00PM."]},{"location":{"stateCode":"CA","latitude":34.1382,"longitude":-117.983,"displayAddress":"1050 Huntington Dr, Duarte, CA, 91010"},"storeNumber":302,"name":"Duarte","supertarget":false,"services":["Pharmacy","Photo Center","Fresh Grocery","Target Mobile","Wine Available","Flu Shot"],"pharmacy":true,"hours":["M-Fr: 8:00 a.m.- 11:00 p.m.","Sa: 8:00 a.m. - 11:00 p.m.","Su: 8:00 a.m.- 10:00 p.m.","11/25-12/15 We will open Mon-Sat 8:00AM-11:00PM and Sun 8:00AM-10:00PM."]},{"location":{"stateCode":"CA","latitude":37.7029,"longitude":-121.854,"displayAddress":"2800 Dublin Blvd, Dublin, CA, 94568"},"storeNumber":2771,"name":"Dublin East","supertarget":false,"services":["Pharmacy","Photo Center","Fresh Grocery","Starbucks","Target Mobile","Wine Available","Flu Shot"],"pharmacy":true,"hours":["M-Fr: 8:00 a.m.- 10:00 p.m.","Sa: 8:00 a.m. - 10:00 p.m.","Su: 8:00 a.m.- 9:00 p.m.","11/25-12/15 We will open Mon-Sat 8:00AM-11:00PM and Sun 8:00AM-10:00PM."]},{"location":{"stateCode":"CA","latitude":37.7068,"longitude":-121.931,"displayAddress":"7200 Amador Plaza Rd, Dublin, CA, 94568"},"storeNumber":328,"name":"Dublin","supertarget":false,"services":["Pharmacy","Fresh Grocery","Target Mobile","Wine Available","Flu Shot"],"pharmacy":true,"hours":["M-Fr: 8:00 a.m.- 11:00 p.m.","Sa: 8:00 a.m. - 11:00 p.m.","Su: 8:00 a.m.- 10:00 p.m.","12/9 - 12/22 we will be open Mon-Sat 8:00AM-12:00AM and Sun 8:00AM-11:00PM"]},{"location":{"stateCode":"CA","latitude":33.9777,"longitude":-117.554,"displayAddress":"12471 Limonite Ave, Eastvale, CA, 91752"},"storeNumber":1961,"name":"Eastvale","supertarget":false,"services":["Pharmacy","Photo Center","Fresh Grocery","Starbucks","Target Mobile","Wine Available","Flu Shot"],"pharmacy":true,"hours":["M-Fr: 8:00 a.m.- 11:00 p.m.","Sa: 8:00 a.m. - 11:00 p.m.","Su: 8:00 a.m.- 10:00 p.m.","11/25-12/22 We will open Mon-Sat 8:00AM-12:00AM and Sun 8:00AM-11:00PM.","On 12/23 hours will be 8:00AM-12:00AM."]},{"location":{"stateCode":"CA","latitude":32.8091,"longitude":-116.96,"displayAddress":"250 Broadway, El Cajon, CA, 92021"},"storeNumber":304,"name":"El Cajon","supertarget":false,"services":["Pharmacy","Fresh Grocery","Wine Available","Flu Shot"],"pharmacy":true,"hours":["M-Fr: 8:00 a.m.- 10:00 p.m.","Sa: 8:00 a.m. - 10:00 p.m.","Su: 8:00 a.m.- 9:00 p.m.","12/9 - 12/22 we will be open Mon-Sat 8:00AM-12:00AM and Sun 8:00AM-11:00PM"]},{"location":{"stateCode":"CA","latitude":32.8133,"longitude":-115.569,"displayAddress":"2295 N Imperial Ave, El Centro, CA, 92243"},"storeNumber":1816,"name":"El Centro","supertarget":false,"services":["Pharmacy","Photo Center","Fresh Grocery","Starbucks","Target Mobile","Wine Available","Flu Shot"],"pharmacy":true,"hours":["M-Fr: 8:00 a.m.- 10:00 p.m.","Sa: 8:00 a.m. - 10:00 p.m.","Su: 8:00 a.m.- 9:00 p.m.","11/25-12/22 We will open Mon-Sat 8:00AM-11:00PM and Sun 8:00AM-10:00PM.","On 12/23 hours will be 8:00AM-12:00AM."]},{"location":{"stateCode":"CA","latitude":38.6498,"longitude":-121.063,"displayAddress":"4400 Town Center Blvd, El Dorado Hills, CA, 95762"},"storeNumber":2270,"name":"El Dorado Hills","supertarget":false,"services":["Pharmacy","Photo Center","Fresh Grocery","Starbucks","Target Mobile","Wine Available","Flu Shot"],"pharmacy":true,"hours":["M-Fr: 8:00 a.m.- 11:00 p.m.","Sa: 8:00 a.m. - 11:00 p.m.","Su: 8:00 a.m.- 10:00 p.m.","11/25-12/15 We will open Mon-Sat 8:00AM-11:00PM and Sun 8:00AM-10:00PM."]},{"location":{"stateCode":"CA","latitude":38.4266,"longitude":-121.416,"displayAddress":"7505 Laguna Blvd, Elk Grove, CA, 95758"},"storeNumber":1025,"name":"Elk Grove","supertarget":false,"services":["Pharmacy","Photo Center","Fresh Grocery","Starbucks","Target Mobile","Wine Available","Flu Shot"],"pharmacy":true,"hours":["M-Fr: 8:00 a.m.- 11:00 p.m.","Sa: 8:00 a.m. - 11:00 p.m.","Su: 8:00 a.m.- 10:00 p.m.","11/25-12/15 We will open Mon-Sat 8:00AM-11:00PM and Sun 8:00AM-10:00PM."]},{"location":{"stateCode":"CA","latitude":33.0633,"longitude":-117.265,"displayAddress":"1010 N El Camino Real, Encinitas, CA, 92024"},"storeNumber":1029,"name":"Encinitas","supertarget":false,"services":["Pharmacy","Photo Center","Fresh Grocery","Starbucks","Target Mobile","Wine Available","Flu Shot"],"pharmacy":true,"hours":["M-Fr: 8:00 a.m.- 11:00 p.m.","Sa: 8:00 a.m. - 11:00 p.m.","Su: 8:00 a.m.- 10:00 p.m.","12/9 - 12/22 we will be open Mon-Sat 8:00AM-12:00AM and Sun 8:00AM-11:00PM"]},{"location":{"stateCode":"CA","latitude":33.1135,"longitude":-117.1,"displayAddress":"1280 Auto Park Way, Escondido, CA, 92029"},"storeNumber":274,"name":"Escondido","supertarget":false,"services":["Pharmacy","Photo Center","Fresh Grocery","Starbucks","Target Mobile","Wine Available","Flu Shot"],"pharmacy":true,"hours":["M-Fr: 8:00 a.m.- 11:00 p.m.","Sa: 8:00 a.m. - 11:00 p.m.","Su: 8:00 a.m.- 10:00 p.m.","11/25-12/15 We will open Mon-Sat 8:00AM-11:00PM and Sun 8:00AM-10:00PM."]},{"location":{"stateCode":"CA","latitude":33.0699,"longitude":-117.065,"displayAddress":"280 E Via Rancho Pkwy, Escondido, CA, 92025"},"storeNumber":2802,"name":"Escondido South","supertarget":false,"services":["Pharmacy","Photo Center","Fresh Grocery","Starbucks","Target Mobile","Wine Available"],"pharmacy":true,"hours":["M-Fr: 8:00 a.m.- 10:00 p.m.","Sa: 8:00 a.m. - 10:00 p.m.","Su: 8:00 a.m.- 9:00 p.m.","11/25-12/22 We will open Mon-Sat 8:00AM-11:00PM and Sun 8:00AM-10:00PM.","On 12/23 hours will be 8:00AM-12:00AM."]},{"location":{"stateCode":"CA","latitude":40.8055,"longitude":-124.145,"displayAddress":"2525 4th St, Eureka, CA, 95501"},"storeNumber":1421,"name":"Eureka","supertarget":false,"services":["Pharmacy","Fresh Grocery","Starbucks","Target Mobile","Wine Available","Flu Shot"],"pharmacy":true,"hours":["M-Fr: 8:00 a.m.- 10:00 p.m.","Sa: 8:00 a.m. - 10:00 p.m.","Su: 8:00 a.m.- 9:00 p.m.","12/9 - 12/22 we will be open Mon-Sat 8:00AM-12:00AM and Sun 8:00AM-11:00PM"]},{"location":{"stateCode":"CA","latitude":38.2466,"longitude":-122.069,"displayAddress":"2059 Cadenasso Dr, Fairfield, CA, 94533"},"storeNumber":675,"name":"Fairfield","supertarget":false,"services":["Pharmacy","Fresh Grocery","Target Mobile","Wine Available","Flu Shot"],"pharmacy":true,"hours":["M-Fr: 8:00 a.m.- 10:00 p.m.","Sa: 8:00 a.m. - 10:00 p.m.","Su: 8:00 a.m.- 9:00 p.m.","11/25-12/22 We will open Mon-Sat 8:00AM-11:00PM and Sun 8:00AM-10:00PM.","On 12/23 hours will be 8:00AM-12:00AM."]},{"location":{"stateCode":"CA","latitude":38.6717,"longitude":-121.152,"displayAddress":"430 Blue Ravine Rd, Folsom, CA, 95630"},"storeNumber":1098,"name":"Folsom","supertarget":false,"services":["Pharmacy","Photo Center","Fresh Grocery","Starbucks","Target Mobile","Wine Available","Flu Shot"],"pharmacy":true,"hours":["M-Fr: 8:00 a.m.- 10:00 p.m.","Sa: 8:00 a.m. - 10:00 p.m.","Su: 8:00 a.m.- 9:00 p.m.","11/25-12/15 We will open Mon-Sat 8:00AM-11:00PM and Sun 8:00AM-10:00PM."]},{"location":{"stateCode":"CA","latitude":34.1519,"longitude":-117.474,"displayAddress":"15272 Summit Ave, Fontana, CA, 92336"},"storeNumber":1958,"name":"Fontana North","supertarget":false,"services":["Pharmacy","Photo Center","Fresh Grocery","Starbucks","Target Mobile","Wine Available","Flu Shot"],"pharmacy":true,"hours":["M-Fr: 8:00 a.m.- 11:00 p.m.","Sa: 8:00 a.m. - 11:00 p.m.","Su: 8:00 a.m.- 10:00 p.m.","12/9 - 12/22 we will be open Mon-Sat 8:00AM-12:00AM and Sun 8:00AM-11:00PM"]},{"location":{"stateCode":"CA","latitude":34.0649,"longitude":-117.434,"displayAddress":"16964 Slover Ave, Fontana, CA, 92337"},"storeNumber":660,"name":"Fontana","supertarget":false,"services":["Pharmacy","Photo Center","Fresh Grocery","Starbucks","Target Mobile","Wine Available","Flu Shot"],"pharmacy":true,"hours":["M-Fr: 8:00 a.m.- 11:00 p.m.","Sa: 8:00 a.m. - 11:00 p.m.","Su: 8:00 a.m.- 10:00 p.m.","11/25-12/15 We will open Mon-Sat 8:00AM-11:00PM and Sun 8:00AM-10:00PM."]},{"location":{"stateCode":"CA","latitude":33.6776,"longitude":-117.664,"displayAddress":"26762 Portola Pkwy, Foothill Ranch, CA, 92610"},"storeNumber":913,"name":"Foothill Ranch","supertarget":false,"services":["Pharmacy","Photo Center","Fresh Grocery","Starbucks","Target Mobile","Wine Available","Flu Shot"],"pharmacy":true,"hours":["M-Fr: 8:00 a.m.- 10:00 p.m.","Sa: 8:00 a.m. - 10:00 p.m.","Su: 8:00 a.m.- 9:00 p.m.","12/9 - 12/22 we will be open Mon-Sat 8:00AM-12:00AM and Sun 8:00AM-11:00PM"]},{"location":{"stateCode":"CA","latitude":37.5451,"longitude":-121.985,"displayAddress":"39201 Fremont Blvd, Fremont, CA, 94538"},"storeNumber":1422,"name":"Fremont Hub","supertarget":false,"services":["Photo Center","Fresh Grocery","Target Mobile","Wine Available"],"pharmacy":false,"hours":["M-Fr: 8:00 a.m.- 11:00 p.m.","Sa: 8:00 a.m. - 11:00 p.m.","Su: 8:00 a.m.- 10:00 p.m.","11/25-12/22 We will open Mon-Sat 8:00AM-12:00AM and Sun 8:00AM-11:00PM.","On 12/23 hours will be 8:00AM-12:00AM."]},{"location":{"stateCode":"CA","latitude":37.5018,"longitude":-121.968,"displayAddress":"43950 Pacific Commons Blvd, Fremont, CA, 94538"},"storeNumber":2615,"name":"Fremont South","supertarget":false,"services":["Pharmacy","Photo Center","Fresh Grocery","Starbucks","Target Mobile","Wine Available","Flu Shot"],"pharmacy":true,"hours":["M-Fr: 8:00 a.m.- 10:00 p.m.","Sa: 8:00 a.m. - 10:00 p.m.","Su: 8:00 a.m.- 9:00 p.m.","11/25-12/22 We will open Mon-Sat 8:00AM-11:00PM and Sun 8:00AM-10:00PM.","On 12/23 hours will be 8:00AM-12:00AM."]},{"location":{"stateCode":"CA","latitude":36.8222,"longitude":-119.788,"displayAddress":"5740 N Blackstone Ave, Fresno, CA, 93710"},"storeNumber":1417,"name":"Fresno Central","supertarget":false,"services":["Pharmacy","Fresh Grocery","Target Mobile","Wine Available","Flu Shot"],"pharmacy":true,"hours":["M-Fr: 8:00 a.m.- 10:00 p.m.","Sa: 8:00 a.m. - 10:00 p.m.","Su: 8:00 a.m.- 9:00 p.m.","11/25-12/15 We will open Mon-Sat 8:00AM-11:00PM and Sun 8:00AM-10:00PM."]},{"location":{"stateCode":"CA","latitude":36.8459,"longitude":-119.788,"displayAddress":"7600 N Blackstone Ave, Fresno, CA, 93720"},"storeNumber":911,"name":"Fresno North","supertarget":false,"services":["Pharmacy","Photo Center","Fresh Grocery","Starbucks","Target Mobile","Wine Available","Flu Shot"],"pharmacy":true,"hours":["M-Fr: 8:00 a.m.- 11:00 p.m.","Sa: 8:00 a.m. - 11:00 p.m.","Su: 8:00 a.m.- 10:00 p.m.","11/25-12/22 We will open Mon-Sat 8:00AM-12:00AM and Sun 8:00AM-11:00PM.","On 12/23 hours will be 8:00AM-12:00AM."]},{"location":{"stateCode":"CA","latitude":36.7803,"longitude":-119.772,"displayAddress":"3173 E Shields Ave, Fresno, CA, 93726"},"storeNumber":314,"name":"Fresno South","supertarget":false,"services":["Pharmacy","Fresh Grocery","Target Mobile","Flu Shot"],"pharmacy":true,"hours":["M-Fr: 8:00 a.m.- 10:00 p.m.","Sa: 8:00 a.m. - 10:00 p.m.","Su: 8:00 a.m.- 9:00 p.m.","12/9 - 12/22 we will be open Mon-Sat 8:00AM-12:00AM and Sun 8:00AM-11:00PM"]},{"location":{"stateCode":"CA","latitude":36.8097,"longitude":-119.847,"displayAddress":"3150 W Shaw Ave, Fresno, CA, 93711"},"storeNumber":275,"name":"Fresno West","supertarget":false,"services":["Pharmacy","Fresh Grocery","Target Mobile","Wine Available","Flu Shot"],"pharmacy":true,"hours":["M-Fr: 8:00 a.m.- 11:00 p.m.","Sa: 8:00 a.m. - 11:00 p.m.","Su: 8:00 a.m.- 10:00 p.m.","12/9 - 12/22 we will be open Mon-Sat 8:00AM-12:00AM and Sun 8:00AM-11:00PM"]},{"location":{"stateCode":"CA","latitude":33.8887,"longitude":-117.874,"displayAddress":"2920 Yorba Linda Blvd, Fullerton, CA, 92831"},"storeNumber":293,"name":"Fullerton","supertarget":false,"services":["Fresh Grocery","Target Mobile","Wine Available"],"pharmacy":false,"hours":["M-Fr: 8:00 a.m.- 10:00 p.m.","Sa: 8:00 a.m. - 10:00 p.m.","Su: 8:00 a.m.- 9:00 p.m.","11/25-12/15 We will open Mon-Sat 8:00AM-11:00PM and Sun 8:00AM-10:00PM."]},{"location":{"stateCode":"CA","latitude":33.8584,"longitude":-117.925,"displayAddress":"200 W Orangethorpe Ave, Fullerton, CA, 92832"},"storeNumber":1418,"name":"Fullerton South","supertarget":false,"services":["Pharmacy","Fresh Grocery","Target Mobile","Wine Available","Flu Shot"],"pharmacy":true,"hours":["M-Fr: 8:00 a.m.- 11:00 p.m.","Sa: 8:00 a.m. - 11:00 p.m.","Su: 8:00 a.m.- 10:00 p.m.","11/25-12/15 We will open Mon-Sat 8:00AM-11:00PM and Sun 8:00AM-10:00PM."]},{"location":{"stateCode":"CA","latitude":33.7875,"longitude":-117.914,"displayAddress":"12100 Harbor Blvd, Garden Grove, CA, 92840"},"storeNumber":192,"name":"Garden Grove Harbor","supertarget":false,"services":["Pharmacy","Photo Center","Fresh Grocery","Target Mobile","Wine Available","Flu Shot"],"pharmacy":true,"hours":["M-Fr: 8:00 a.m.- 11:00 p.m.","Sa: 8:00 a.m. - 11:00 p.m.","Su: 8:00 a.m.- 10:00 p.m.","11/25-12/22 We will open Mon-Sat 8:00AM-12:00AM and Sun 8:00AM-11:00PM.","On 12/23 hours will be 8:00AM-12:00AM."]},{"location":{"stateCode":"CA","latitude":33.8866,"longitude":-118.317,"displayAddress":"2169 W Redondo Beach Blvd, Gardena, CA, 90247"},"storeNumber":290,"name":"Gardena","supertarget":false,"services":["Pharmacy","Photo Center","Fresh Grocery","Starbucks","Target Mobile","Wine Available","In-Store Apple Store","Flu Shot"],"pharmacy":true,"hours":["M-Fr: 8:00 a.m.- 11:00 p.m.","Sa: 8:00 a.m. - 11:00 p.m.","Su: 8:00 a.m.- 10:00 p.m.","12/9 - 12/22 we will be open Mon-Sat 8:00AM-12:00AM and Sun 8:00AM-11:00PM"]},{"location":{"stateCode":"CA","latitude":37.0009,"longitude":-121.551,"displayAddress":"6705 Camino Arroyo, Gilroy, CA, 95020"},"storeNumber":1851,"name":"Gilroy","supertarget":false,"services":["Pharmacy","Target Mobile","Wine Available","Flu Shot"],"pharmacy":true,"hours":["M-Fr: 8:00 a.m.- 10:00 p.m.","Sa: 8:00 a.m. - 10:00 p.m.","Su: 8:00 a.m.- 9:00 p.m.","11/25-12/22 We will open Mon-Sat 8:00AM-11:00PM and Sun 8:00AM-10:00PM.","On 12/23 hours will be 8:00AM-12:00AM."]},{"location":{"stateCode":"CA","latitude":34.1445,"longitude":-118.259,"displayAddress":"2195 Glendale Galleria, Glendale, CA, 91210"},"storeNumber":2307,"name":"Glendale","supertarget":false,"services":["Pharmacy","Photo Center","Fresh Grocery","Starbucks","Target Mobile","Wine Available","Flu Shot"],"pharmacy":true,"hours":["M-Fr: 8:00 a.m.- 11:00 p.m.","Sa: 8:00 a.m. - 11:00 p.m.","Su: 8:00 a.m.- 10:00 p.m.","11/25-12/22 We will open Mon-Sat 8:00AM-12:00AM and Sun 8:00AM-11:00PM.","On 12/23 hours will be 8:00AM-12:00AM."]},{"location":{"stateCode":"CA","latitude":34.2727,"longitude":-118.503,"displayAddress":"11133 Balboa Blvd, Granada Hills, CA, 91344"},"storeNumber":2329,"name":"Granada Hills","supertarget":false,"services":["Pharmacy","Photo Center","Fresh Grocery","Starbucks","Target Mobile","Flu Shot"],"pharmacy":true,"hours":["M-Fr: 8:00 a.m.- 11:00 p.m.","Sa: 8:00 a.m. - 11:00 p.m.","Su: 8:00 a.m.- 10:00 p.m.","11/25-12/22 We will open Mon-Sat 8:00AM-12:00AM and Sun 8:00AM-11:00PM.","On 12/23 hours will be 8:00AM-12:00AM."]},{"location":{"stateCode":"CA","latitude":36.3237,"longitude":-119.675,"displayAddress":"140 N 12th Ave, Hanford, CA, 93230"},"storeNumber":1906,"name":"Hanford","supertarget":false,"services":["Pharmacy","Photo Center","Fresh Grocery","Starbucks","Target Mobile","Wine Available","Flu Shot"],"pharmacy":true,"hours":["M-Fr: 8:00 a.m.- 10:00 p.m.","Sa: 8:00 a.m. - 10:00 p.m.","Su: 8:00 a.m.- 9:00 p.m.","12/9 - 12/22 we will be open Mon-Sat 8:00AM-12:00AM and Sun 8:00AM-11:00PM"]},{"location":{"stateCode":"CA","latitude":33.9227,"longitude":-118.319,"displayAddress":"2700 W 120th St, Hawthorne, CA, 90250"},"storeNumber":2280,"name":"Hawthorne","supertarget":false,"services":["Pharmacy","Fresh Grocery","Starbucks","Target Mobile","Wine Available","Flu Shot"],"pharmacy":true,"hours":["M-Fr: 8:00 a.m.- 11:00 p.m.","Sa: 8:00 a.m. - 11:00 p.m.","Su: 8:00 a.m.- 10:00 p.m.","12/9 - 12/22 we will be open Mon-Sat 8:00AM-12:00AM and Sun 8:00AM-11:00PM"]},{"location":{"stateCode":"CA","latitude":37.6666,"longitude":-122.121,"displayAddress":"19661 Hesperian Blvd, Hayward, CA, 94541"},"storeNumber":2185,"name":"Hayward North","supertarget":false,"services":["Pharmacy","Photo Center","Fresh Grocery","Starbucks","Target Mobile","Flu Shot"],"pharmacy":true,"hours":["M-Fr: 8:00 a.m.- 11:00 p.m.","Sa: 8:00 a.m. - 11:00 p.m.","Su: 8:00 a.m.- 10:00 p.m.","11/25-12/15 We will open Mon-Sat 8:00AM-11:00PM and Sun 8:00AM-10:00PM."]},{"location":{"stateCode":"CA","latitude":37.6077,"longitude":-122.063,"displayAddress":"2499 Whipple Rd, Hayward, CA, 94544"},"storeNumber":1472,"name":"Hayward","supertarget":false,"services":["Pharmacy","Fresh Grocery","Target Mobile","Wine Available","Flu Shot"],"pharmacy":true,"hours":["M-Fr: 8:00 a.m.- 11:00 p.m.","Sa: 8:00 a.m. - 11:00 p.m.","Su: 8:00 a.m.- 10:00 p.m.","12/9 - 12/22 we will be open Mon-Sat 8:00AM-12:00AM and Sun 8:00AM-11:00PM"]},{"location":{"stateCode":"CA","latitude":33.746,"longitude":-117.009,"displayAddress":"3527 W Florida Ave, Hemet, CA, 92545"},"storeNumber":761,"name":"Hemet","supertarget":false,"services":["Pharmacy","Photo Center","Fresh Grocery","Starbucks","Target Mobile","Wine Available","Flu Shot"],"pharmacy":true,"hours":["M-Fr: 8:00 a.m.- 10:00 p.m.","Sa: 8:00 a.m. - 10:00 p.m.","Su: 8:00 a.m.- 9:00 p.m.","11/25-12/22 We will open Mon-Sat 8:00AM-11:00PM and Sun 8:00AM-10:00PM.","On 12/23 hours will be 8:00AM-12:00AM."]},{"location":{"stateCode":"CA","latitude":34.4247,"longitude":-117.385,"displayAddress":"12795 Main St, Hesperia, CA, 92345"},"storeNumber":2468,"name":"Hesperia SuperTarget","supertarget":true,"services":["Pharmacy","Photo Center","Optical","Fresh Grocery","Starbucks","Target Mobile","Wine Available","Flu Shot"],"pharmacy":true,"hours":["M-Fr: 8:00 a.m.- 11:00 p.m.","Sa: 8:00 a.m. - 11:00 p.m.","Su: 8:00 a.m.- 10:00 p.m.","11/25-12/15 We will open Mon-Sat 8:00AM-11:00PM and Sun 8:00AM-10:00PM."]},{"location":{"stateCode":"CA","latitude":33.6708,"longitude":-117.955,"displayAddress":"9882 Adams Ave, Huntington Beach, CA, 92646"},"storeNumber":2051,"name":"Huntington Beach East","supertarget":false,"services":["Pharmacy","Photo Center","Fresh Grocery","Starbucks","Target Mobile","Wine Available","In-Store Apple Store","Flu Shot"],"pharmacy":true,"hours":["M-Fr: 8:00 a.m.- 11:00 p.m.","Sa: 8:00 a.m. - 11:00 p.m.","Su: 8:00 a.m.- 10:00 p.m.","11/25-12/15 We will open Mon-Sat 8:00AM-11:00PM and Sun 8:00AM-10:00PM."]},{"location":{"stateCode":"CA","latitude":33.7394,"longitude":-116.218,"displayAddress":"42625 Jackson St, Indio, CA, 92203"},"storeNumber":2441,"name":"Indio SuperTarget","supertarget":true,"services":["Pharmacy","Optical","Fresh Grocery","Starbucks","Target Mobile","Wine Available","Flu Shot"],"pharmacy":true,"hours":["M-Fr: 8:00 a.m.- 11:00 p.m.","Sa: 8:00 a.m. - 11:00 p.m.","Su: 8:00 a.m.- 10:00 p.m.","11/25-12/15 We will open Mon-Sat 8:00AM-11:00PM and Sun 8:00AM-10:00PM."]},{"location":{"stateCode":"CA","latitude":33.9478,"longitude":-118.333,"displayAddress":"3471 W Century Blvd, Inglewood, CA, 90303"},"storeNumber":1329,"name":"Inglewood","supertarget":false,"services":["Pharmacy","Optical","Fresh Grocery","Starbucks","Target Mobile","Portrait Studio","In-Store Apple Store","Flu Shot"],"pharmacy":true,"hours":["M-Fr: 8:00 a.m.- 11:00 p.m.","Sa: 8:00 a.m. - 11:00 p.m.","Su: 8:00 a.m.- 10:00 p.m.","11/25-12/15 We will open Mon-Sat 8:00AM-11:00PM and Sun 8:00AM-10:00PM."]},{"location":{"stateCode":"CA","latitude":33.7278,"longitude":-117.785,"displayAddress":"13200 Jamboree Rd, Irvine, CA, 92602"},"storeNumber":1238,"name":"Irvine North","supertarget":false,"services":["Pharmacy","Photo Center","Optical","Fresh Grocery","Target Mobile","Portrait Studio","Wine Available","In-Store Apple Store","Flu Shot"],"pharmacy":true,"hours":["M-Fr: 8:00 a.m.- 11:00 p.m.","Sa: 8:00 a.m. - 11:00 p.m.","Su: 8:00 a.m.- 10:00 p.m.","11/25-12/22 We will open Mon-Sat 8:00AM-12:00AM and Sun 8:00AM-11:00PM.","On 12/23 hours will be 8:00AM-12:00AM."]},{"location":{"stateCode":"CA","latitude":33.6836,"longitude":-117.81,"displayAddress":"3750 Barranca Pkwy, Irvine, CA, 92606"},"storeNumber":336,"name":"Irvine","supertarget":false,"services":["Pharmacy","Photo Center","Fresh Grocery","Target Mobile","Wine Available","Flu Shot"],"pharmacy":true,"hours":["M-Fr: 8:00 a.m.- 11:00 p.m.","Sa: 8:00 a.m. - 11:00 p.m.","Su: 8:00 a.m.- 10:00 p.m.","11/25-12/15 We will open Mon-Sat 8:00AM-11:00PM and Sun 8:00AM-10:00PM."]},{"location":{"stateCode":"CA","latitude":33.6529,"longitude":-117.744,"displayAddress":"115 Fortune Dr, Irvine, CA, 92618"},"storeNumber":2128,"name":"Irvine Spectrum","supertarget":false,"services":["Pharmacy","Photo Center","Fresh Grocery","Starbucks","Target Mobile","Wine Available","Flu Shot"],"pharmacy":true,"hours":["M-Fr: 8:00 a.m.- 11:00 p.m.","Sa: 8:00 a.m. - 11:00 p.m.","Su: 8:00 a.m.- 10:00 p.m.","11/25-12/15 We will open Mon-Sat 8:00AM-11:00PM and Sun 8:00AM-10:00PM."]},{"location":{"stateCode":"CA","latitude":32.8162,"longitude":-117.151,"displayAddress":"8001 Othello Ave, San Diego, CA, 92111"},"storeNumber":205,"name":"Kearny Mesa","supertarget":false,"services":["Fresh Grocery","Wine Available"],"pharmacy":false,"hours":["M-Fr: 8:00 a.m.- 10:00 p.m.","Sa: 8:00 a.m. - 10:00 p.m.","Su: 8:00 a.m.- 9:00 p.m.","11/25-12/15 We will open Mon-Sat 8:00AM-11:00PM and Sun 8:00AM-10:00PM."]},{"location":{"stateCode":"CA","latitude":34.0489,"longitude":-118.261,"displayAddress":"735 S Figueroa St, Los Angeles, CA, 90017"},"storeNumber":2776,"name":"LA Central","supertarget":false,"services":["Pharmacy","Starbucks","Target Mobile","Wine Available","In-Store Apple Store"],"pharmacy":true,"hours":["M-Fr: 7:00 a.m.- 9:00 p.m.","Sa: 8:00 a.m. - 9:00 p.m.","Su: 8:00 a.m.- 9:00 p.m.","From 11/25/12 - 12/22/12 we will be open Mon-Fri 7:00 AM to 10:00 PM Sat 8:00 AM to 10:00 PM Sun 8:00 AM to 10:00 PM"]},{"location":{"stateCode":"CA","latitude":34.0629,"longitude":-118.444,"displayAddress":"10861 Weyburn Ave, Los Angeles, CA, 90024"},"storeNumber":2774,"name":"LA Westwood","supertarget":false,"services":["Starbucks","Target Mobile","In-Store Apple Store"],"pharmacy":false,"hours":["M-Fr: 7:00 a.m.- 10:00 p.m.","Sa: 8:00 a.m. - 10:00 p.m.","Su: 8:00 a.m.- 9:00 p.m.","11/25-12/22 We will be open Mon-Fri 7:00 AM to 11:00 PM Sat 8:00 AM to 11:00 PM Sun 8:00 AM to 10:00 PM"]},{"location":{"stateCode":"CA","latitude":33.9161,"longitude":-117.958,"displayAddress":"1000 W Imperial Hwy, La Habra, CA, 90631"},"storeNumber":2397,"name":"La Habra","supertarget":false,"services":["Pharmacy","Photo Center","Fresh Grocery","Starbucks","Target Mobile","Wine Available","Flu Shot"],"pharmacy":true,"hours":["M-Fr: 8:00 a.m.- 11:00 p.m.","Sa: 8:00 a.m. - 11:00 p.m.","Su: 8:00 a.m.- 10:00 p.m.","11/25-12/15 We will open Mon-Sat 8:00AM-11:00PM and Sun 8:00AM-10:00PM."]},{"location":{"stateCode":"CA","latitude":33.7104,"longitude":-116.291,"displayAddress":"78935 US Hwy 111, La Quinta, CA, 92253"},"storeNumber":1867,"name":"La Quinta","supertarget":false,"services":["Pharmacy","Photo Center","Fresh Grocery","Starbucks","Target Mobile","Wine Available","Flu Shot"],"pharmacy":true,"hours":["M-Fr: 8:00 a.m.- 10:00 p.m.","Sa: 8:00 a.m. - 10:00 p.m.","Su: 8:00 a.m.- 9:00 p.m.","12/9 - 12/22 we will be open Mon-Sat 8:00AM-12:00AM and Sun 8:00AM-11:00PM"]},{"location":{"stateCode":"CA","latitude":33.6897,"longitude":-117.342,"displayAddress":"18287 Collier Ave, Lake Elsinore, CA, 92530"},"storeNumber":2195,"name":"Lake Elsinore","supertarget":false,"services":["Pharmacy","Photo Center","Fresh Grocery","Starbucks","Wine Available","Flu Shot"],"pharmacy":true,"hours":["M-Fr: 8:00 a.m.- 10:00 p.m.","Sa: 8:00 a.m. - 10:00 p.m.","Su: 8:00 a.m.- 9:00 p.m.","11/25-12/15 We will open Mon-Sat 8:00AM-11:00PM and Sun 8:00AM-10:00PM."]},{"location":{"stateCode":"CA","latitude":33.8522,"longitude":-118.141,"displayAddress":"141 Lakewood Center Mall, Lakewood, CA, 90712"},"storeNumber":1409,"name":"Lakewood Center Mall","supertarget":false,"services":["Pharmacy","Photo Center","Fresh Grocery","Target Mobile","Wine Available","Flu Shot"],"pharmacy":true,"hours":["M-Fr: 8:00 a.m.- 11:00 p.m.","Sa: 8:00 a.m. - 11:00 p.m.","Su: 8:00 a.m.- 10:00 p.m.","12/9 - 12/22 we will be open Mon-Sat 8:00AM-12:00AM and Sun 8:00AM-11:00PM"]},{"location":{"stateCode":"CA","latitude":34.6737,"longitude":-118.149,"displayAddress":"43525 10th St W, Lancaster, CA, 93534"},"storeNumber":245,"name":"Lancaster","supertarget":false,"services":["Pharmacy","Photo Center","Fresh Grocery","Target Mobile","Wine Available","Flu Shot"],"pharmacy":true,"hours":["M-Fr: 8:00 a.m.- 10:00 p.m.","Sa: 8:00 a.m. - 10:00 p.m.","Su: 8:00 a.m.- 9:00 p.m.","11/25-12/15 We will open Mon-Sat 8:00AM-11:00PM and Sun 8:00AM-10:00PM."]},{"location":{"stateCode":"CA","latitude":37.8087,"longitude":-121.299,"displayAddress":"16858 Golden Valley Pkwy, Lathrop, CA, 95330"},"storeNumber":2347,"name":"Lathrop","supertarget":false,"services":["Pharmacy","Fresh Grocery","Starbucks","Target Mobile","Wine Available","Flu Shot"],"pharmacy":true,"hours":["M-Fr: 8:00 a.m.- 10:00 p.m.","Sa: 8:00 a.m. - 10:00 p.m.","Su: 8:00 a.m.- 9:00 p.m.","11/25-12/22 We will open Mon-Sat 8:00AM-11:00PM and Sun 8:00AM-10:00PM.","On 12/23 hours will be 8:00AM-12:00AM."]},{"location":{"stateCode":"CA","latitude":34.1101,"longitude":-117.76,"displayAddress":"2462 Foothill Blvd, La Verne, CA, 91750"},"storeNumber":226,"name":"Laverne","supertarget":false,"services":["Pharmacy","Photo Center","Fresh Grocery","Starbucks","Target Mobile","Wine Available","In-Store Apple Store","Flu Shot"],"pharmacy":true,"hours":["M-Fr: 8:00 a.m.- 11:00 p.m.","Sa: 8:00 a.m. - 11:00 p.m.","Su: 8:00 a.m.- 10:00 p.m.","12/9 - 12/22 we will be open Mon-Sat 8:00AM-12:00AM and Sun 8:00AM-11:00PM"]},{"location":{"stateCode":"CA","latitude":32.7414,"longitude":-117.054,"displayAddress":"3424 College Ave, San Diego, CA, 92115"},"storeNumber":1846,"name":"Lemon Grove","supertarget":false,"services":["Photo Center","Fresh Grocery","Target Mobile","Wine Available"],"pharmacy":false,"hours":["M-Fr: 8:00 a.m.- 11:00 p.m.","Sa: 8:00 a.m. - 11:00 p.m.","Su: 8:00 a.m.- 10:00 p.m.","11/25-12/15 We will open Mon-Sat 8:00AM-11:00PM and Sun 8:00AM-10:00PM."]},{"location":{"stateCode":"CA","latitude":38.8732,"longitude":-121.301,"displayAddress":"950 Groveland LN, Lincoln, CA, 95648"},"storeNumber":2214,"name":"Lincoln","supertarget":false,"services":["Pharmacy","Photo Center","Fresh Grocery","Starbucks","Target Mobile","Wine Available","Flu Shot"],"pharmacy":true,"hours":["M-Fr: 8:00 a.m.- 10:00 p.m.","Sa: 8:00 a.m. - 10:00 p.m.","Su: 8:00 a.m.- 9:00 p.m.","11/25-12/22 We will open Mon-Sat 8:00AM-11:00PM and Sun 8:00AM-10:00PM.","On 12/23 hours will be 8:00AM-12:00AM."]},{"location":{"stateCode":"CA","latitude":37.7014,"longitude":-121.747,"displayAddress":"4300 Las Positas Rd, Livermore, CA, 94551"},"storeNumber":828,"name":"Livermore","supertarget":false,"services":["Pharmacy","Photo Center","Fresh Grocery","Starbucks","Target Mobile","Wine Available","Flu Shot"],"pharmacy":true,"hours":["M-Fr: 8:00 a.m.- 10:00 p.m.","Sa: 8:00 a.m. - 10:00 p.m.","Su: 8:00 a.m.- 9:00 p.m.","12/9 - 12/22 we will be open Mon-Sat 8:00AM-12:00AM and Sun 8:00AM-11:00PM"]},{"location":{"stateCode":"CA","latitude":38.117,"longitude":-121.304,"displayAddress":"2355 W Kettleman Ln, Lodi, CA, 95242"},"storeNumber":853,"name":"Lodi","supertarget":false,"services":["Pharmacy","Photo Center","Fresh Grocery","Starbucks","Target Mobile","Wine Available","Flu Shot"],"pharmacy":true,"hours":["M-Fr: 8:00 a.m.- 10:00 p.m.","Sa: 8:00 a.m. - 10:00 p.m.","Su: 8:00 a.m.- 9:00 p.m.","11/25-12/15 We will open Mon-Sat 8:00AM-11:00PM and Sun 8:00AM-10:00PM."]},{"location":{"stateCode":"CA","latitude":33.7987,"longitude":-118.123,"displayAddress":"2270 N Bellflower Blvd, Long Beach, CA, 90815"},"storeNumber":195,"name":"Long Beach Bellflower","supertarget":false,"services":["Pharmacy","Photo Center","Fresh Grocery","Target Mobile","Wine Available","Flu Shot"],"pharmacy":true,"hours":["M-Fr: 8:00 a.m.- 11:00 p.m.","Sa: 8:00 a.m. - 11:00 p.m.","Su: 8:00 a.m.- 10:00 p.m.","11/25-12/22 We will open Mon-Sat 8:00AM-12:00AM and Sun 8:00AM-11:00PM.","On 12/23 hours will be 8:00AM-12:00AM."]},{"location":{"stateCode":"CA","latitude":33.8773,"longitude":-118.166,"displayAddress":"6750 Cherry Ave, Long Beach, CA, 90805"},"storeNumber":2424,"name":"Long Beach NW","supertarget":false,"services":["Pharmacy","Photo Center","Fresh Grocery","Starbucks","Target Mobile","Wine Available","Flu Shot"],"pharmacy":true,"hours":["M-Fr: 8:00 a.m.- 10:00 p.m.","Sa: 8:00 a.m. - 10:00 p.m.","Su: 8:00 a.m.- 9:00 p.m.","11/25-12/15 We will open Mon-Sat 8:00AM-11:00PM and Sun 8:00AM-10:00PM."]},{"location":{"stateCode":"CA","latitude":34.1414,"longitude":-118.225,"displayAddress":"2626 Colorado Blvd, Los Angeles, CA, 90041"},"storeNumber":1408,"name":"Los Angeles Eagle Rock","supertarget":false,"services":["Pharmacy","Photo Center","Fresh Grocery","Starbucks","Target Mobile","Wine Available","Flu Shot"],"pharmacy":true,"hours":["M-Fr: 8:00 a.m.- 11:00 p.m.","Sa: 8:00 a.m. - 11:00 p.m.","Su: 8:00 a.m.- 10:00 p.m.","11/25-12/22 We will open Mon-Sat 8:00AM-12:00AM and Sun 8:00AM-11:00PM.","On 12/23 hours will be 8:00AM-12:00AM."]},{"location":{"stateCode":"CA","latitude":34.0226,"longitude":-118.373,"displayAddress":"3535 S La Cienega Blvd, Los Angeles, CA, 90016"},"storeNumber":1306,"name":"Los Angeles","supertarget":false,"services":["Pharmacy","Photo Center","Optical","Fresh Grocery","Starbucks","Target Mobile","In-Store Apple Store","Flu Shot"],"pharmacy":true,"hours":["M-Fr: 8:00 a.m.- 11:00 p.m.","Sa: 8:00 a.m. - 11:00 p.m.","Su: 8:00 a.m.- 10:00 p.m.","11/25-12/22 We will open Mon-Sat 8:00AM-12:00AM and Sun 8:00AM-11:00PM.","On 12/23 hours will be 8:00AM-12:00AM."]},{"location":{"stateCode":"CA","latitude":34.1929,"longitude":-118.604,"displayAddress":"6700 Topanga Canyon Blvd, Canoga Park, CA, 91303"},"storeNumber":2143,"name":"Los Angeles Topanga","supertarget":false,"services":["Pharmacy","Photo Center","Fresh Grocery","Starbucks","Target Mobile","Wine Available","In-Store Apple Store","Flu Shot"],"pharmacy":true,"hours":["M-Fr: 8:00 a.m.- 11:00 p.m.","Sa: 8:00 a.m. - 11:00 p.m.","Su: 8:00 a.m.- 10:00 p.m.","11/25-12/15 We will open Mon-Sat 8:00AM-11:00PM and Sun 8:00AM-10:00PM."]},{"location":{"stateCode":"CA","latitude":37.0535,"longitude":-120.876,"displayAddress":"1405 W Pacheco Blvd, Los Banos, CA, 93635"},"storeNumber":2359,"name":"Los Banos","supertarget":false,"services":["Pharmacy","Photo Center","Fresh Grocery","Starbucks","Target Mobile","Wine Available","Flu Shot"],"pharmacy":true,"hours":["M-Fr: 8:00 a.m.- 10:00 p.m.","Sa: 8:00 a.m. - 10:00 p.m.","Su: 8:00 a.m.- 9:00 p.m.","11/25-12/22 We will open Mon-Sat 8:00AM-11:00PM and Sun 8:00AM-10:00PM.","On 12/23 hours will be 8:00AM-12:00AM."]},{"location":{"stateCode":"CA","latitude":33.8889,"longitude":-118.395,"displayAddress":"1200 N Sepulveda Blvd, Manhattan Beach, CA, 90266"},"storeNumber":199,"name":"Manhattan Beach","supertarget":false,"services":["Pharmacy","Photo Center","Fresh Grocery","Starbucks","Target Mobile","Wine Available","Flu Shot"],"pharmacy":true,"hours":["M-Fr: 8:00 a.m.- 11:00 p.m.","Sa: 8:00 a.m. - 11:00 p.m.","Su: 8:00 a.m.- 10:00 p.m.","11/25-12/22 We will open Mon-Sat 8:00AM-12:00AM and Sun 8:00AM-11:00PM.","On 12/23 hours will be 8:00AM-12:00AM."]},{"location":{"stateCode":"CA","latitude":37.7952,"longitude":-121.197,"displayAddress":"280 Spreckels Ave, Manteca, CA, 95336"},"storeNumber":1526,"name":"Manteca","supertarget":false,"services":["Pharmacy","Fresh Grocery","Target Mobile","Wine Available","Flu Shot"],"pharmacy":true,"hours":["M-Fr: 8:00 a.m.- 10:00 p.m.","Sa: 8:00 a.m. - 10:00 p.m.","Su: 8:00 a.m.- 9:00 p.m.","12/9 - 12/22 we will be open Mon-Sat 8:00AM-12:00AM and Sun 8:00AM-11:00PM"]},{"location":{"stateCode":"CA","latitude":36.6679,"longitude":-121.811,"displayAddress":"133 General Stilwell Dr, Marina, CA, 93933"},"storeNumber":2306,"name":"Marina","supertarget":false,"services":["Pharmacy","Photo Center","Fresh Grocery","Starbucks","Target Mobile","Wine Available","Flu Shot"],"pharmacy":true,"hours":["M-Fr: 8:00 a.m.- 10:00 p.m.","Sa: 8:00 a.m. - 10:00 p.m.","Su: 8:00 a.m.- 9:00 p.m.","12/9 - 12/22 we will be open Mon-Sat 8:00AM-12:00AM and Sun 8:00AM-11:00PM"]},{"location":{"stateCode":"CA","latitude":33.682,"longitude":-117.174,"displayAddress":"30340 Haun Rd, Menifee, CA, 92584"},"storeNumber":2471,"name":"Menifee SuperTarget","supertarget":true,"services":["Pharmacy","Photo Center","Optical","Fresh Grocery","Starbucks","Target Mobile","Wine Available","Flu Shot"],"pharmacy":true,"hours":["M-Fr: 8:00 a.m.- 11:00 p.m.","Sa: 8:00 a.m. - 11:00 p.m.","Su: 8:00 a.m.- 10:00 p.m.","11/25-12/15 We will open Mon-Sat 8:00AM-11:00PM and Sun 8:00AM-10:00PM."]},{"location":{"stateCode":"CA","latitude":37.3225,"longitude":-120.485,"displayAddress":"3280 R St, Merced, CA, 95348"},"storeNumber":641,"name":"Merced","supertarget":false,"services":["Photo Center","Fresh Grocery","Target Mobile","Wine Available"],"pharmacy":false,"hours":["M-Fr: 8:00 a.m.- 10:00 p.m.","Sa: 8:00 a.m. - 10:00 p.m.","Su: 8:00 a.m.- 9:00 p.m.","11/25-12/22 We will open Mon-Sat 8:00AM-11:00PM and Sun 8:00AM-10:00PM.","On 12/23 hours will be 8:00AM-12:00AM."]},{"location":{"stateCode":"CA","latitude":32.9109,"longitude":-117.146,"displayAddress":"8251 Mira Mesa Blvd, San Diego, CA, 92126"},"storeNumber":305,"name":"Mira Mesa","supertarget":false,"services":["Pharmacy","Photo Center","Fresh Grocery","Starbucks","Target Mobile","Wine Available","In-Store Apple Store","Flu Shot"],"pharmacy":true,"hours":["M-Fr: 8:00 a.m.- 11:00 p.m.","Sa: 8:00 a.m. - 11:00 p.m.","Su: 8:00 a.m.- 10:00 p.m.","12/9 - 12/22 we will be open Mon-Sat 8:00AM-12:00AM and Sun 8:00AM-11:00PM"]},{"location":{"stateCode":"CA","latitude":33.6231,"longitude":-117.683,"displayAddress":"25601 Jeronimo Rd, Mission Viejo, CA, 92691"},"storeNumber":2163,"name":"Mission Viejo N","supertarget":false,"services":["Pharmacy","Photo Center","Fresh Grocery","Starbucks","Target Mobile","Wine Available","In-Store Apple Store","Flu Shot"],"pharmacy":true,"hours":["M-Fr: 8:00 a.m.- 11:00 p.m.","Sa: 8:00 a.m. - 11:00 p.m.","Su: 8:00 a.m.- 10:00 p.m.","11/25-12/15 We will open Mon-Sat 8:00AM-11:00PM and Sun 8:00AM-10:00PM."]},{"location":{"stateCode":"CA","latitude":33.6062,"longitude":-117.689,"displayAddress":"24500 Alicia Pkwy, Mission Viejo, CA, 92691"},"storeNumber":300,"name":"Mission Viejo","supertarget":false,"services":["Pharmacy","Photo Center","Fresh Grocery","Starbucks","Wine Available","Flu Shot"],"pharmacy":true,"hours":["M-Fr: 8:00 a.m.- 10:00 p.m.","Sa: 8:00 a.m. - 10:00 p.m.","Su: 8:00 a.m.- 9:00 p.m.","11/25-12/15 We will open Mon-Sat 8:00AM-11:00PM and Sun 8:00AM-10:00PM."]},{"location":{"stateCode":"CA","latitude":37.6871,"longitude":-120.996,"displayAddress":"3405 Mchenry Ave, Modesto, CA, 95350"},"storeNumber":273,"name":"Modesto","supertarget":false,"services":["Pharmacy","Photo Center","Fresh Grocery","Target Mobile","Wine Available","Flu Shot"],"pharmacy":true,"hours":["M-Fr: 8:00 a.m.- 10:00 p.m.","Sa: 8:00 a.m. - 10:00 p.m.","Su: 8:00 a.m.- 9:00 p.m.","11/25-12/15 We will open Mon-Sat 8:00AM-11:00PM and Sun 8:00AM-10:00PM."]},{"location":{"stateCode":"CA","latitude":34.0894,"longitude":-117.692,"displayAddress":"9052 Central Ave, Montclair, CA, 91763"},"storeNumber":1423,"name":"Montclair","supertarget":false,"services":["Pharmacy","Photo Center","Fresh Grocery","Target Mobile","Wine Available","Flu Shot"],"pharmacy":true,"hours":["M-Fr: 8:00 a.m.- 11:00 p.m.","Sa: 8:00 a.m. - 11:00 p.m.","Su: 8:00 a.m.- 10:00 p.m.","11/25-12/15 We will open Mon-Sat 8:00AM-11:00PM and Sun 8:00AM-10:00PM."]},{"location":{"stateCode":"CA","latitude":34.2792,"longitude":-118.866,"displayAddress":"800 New Los Angeles Ave, Moorpark, CA, 93021"},"storeNumber":1547,"name":"Moorpark","supertarget":false,"services":["Pharmacy","Photo Center","Fresh Grocery","Target Mobile","Wine Available","In-Store Apple Store","Flu Shot"],"pharmacy":true,"hours":["M-Fr: 8:00 a.m.- 11:00 p.m.","Sa: 8:00 a.m. - 11:00 p.m.","Su: 8:00 a.m.- 10:00 p.m.","12/9 - 12/22 we will be open Mon-Sat 8:00AM-12:00AM and Sun 8:00AM-11:00PM"]},{"location":{"stateCode":"CA","latitude":33.9373,"longitude":-117.189,"displayAddress":"27100 Eucalyptus Ave, Moreno Valley, CA, 92555"},"storeNumber":2309,"name":"Moreno Valley East SuperTarget","supertarget":true,"services":["Pharmacy","Photo Center","Optical","Fresh Grocery","Starbucks","Target Mobile","Wine Available","Flu Shot"],"pharmacy":true,"hours":["M-Fr: 8:00 a.m.- 10:00 p.m.","Sa: 8:00 a.m. - 10:00 p.m.","Su: 8:00 a.m.- 9:00 p.m.","12/9 - 12/22 we will be open Mon-Sat 8:00AM-12:00AM and Sun 8:00AM-11:00PM"]},{"location":{"stateCode":"CA","latitude":37.1575,"longitude":-121.654,"displayAddress":"1061 Cochrane Rd, Morgan Hill, CA, 95037"},"storeNumber":2252,"name":"Morgan Hill","supertarget":false,"services":["Pharmacy","Photo Center","Fresh Grocery","Starbucks","Target Mobile","Wine Available","Flu Shot"],"pharmacy":true,"hours":["M-Fr: 8:00 a.m.- 10:00 p.m.","Sa: 8:00 a.m. - 10:00 p.m.","Su: 8:00 a.m.- 9:00 p.m.","11/25-12/22 We will open Mon-Sat 8:00AM-11:00PM and Sun 8:00AM-10:00PM.","On 12/23 hours will be 8:00AM-12:00AM."]},{"location":{"stateCode":"CA","latitude":37.4007,"longitude":-122.106,"displayAddress":"555 Showers Dr, Mountain View, CA, 94040"},"storeNumber":322,"name":"Mountain View","supertarget":false,"services":["Pharmacy","Target Mobile","Wine Available","Flu Shot"],"pharmacy":true,"hours":["M-Fr: 8:00 a.m.- 11:00 p.m.","Sa: 8:00 a.m. - 11:00 p.m.","Su: 8:00 a.m.- 10:00 p.m.","11/25-12/15 We will open Mon-Sat 8:00AM-11:00PM and Sun 8:00AM-10:00PM."]},{"location":{"stateCode":"CA","latitude":33.6042,"longitude":-117.174,"displayAddress":"27818 Clinton Keith Rd, Murrieta, CA, 92562"},"storeNumber":2499,"name":"Murrieta North SuperTarget","supertarget":true,"services":["Pharmacy","Photo Center","Optical","Fresh Grocery","Starbucks","Target Mobile","Wine Available","Flu Shot"],"pharmacy":true,"hours":["M-Fr: 8:00 a.m.- 11:00 p.m.","Sa: 8:00 a.m. - 11:00 p.m.","Su: 8:00 a.m.- 10:00 p.m.","11/25-12/15 We will open Mon-Sat 8:00AM-11:00PM and Sun 8:00AM-10:00PM."]},